{
  "exploration_timestamp": "20250807_203117",
  "api_base_url": "https://api-public.smartmoving.com/v1",
  "results": {
    "branches": {
      "total_branches": 50,
      "branches": [
        {
          "id": "b16b875e-afff-4b0f-9901-b2fa00eec2da",
          "name": "ABBOTSFORD \ud83c\udde8\ud83c\udde6 - Let's Get Moving ",
          "phone": "",
          "is_primary": false,
          "dispatch_location": {
            "full_address": "32615 South Fraser Way, Abbotsford, British Columbia V2T 1X8, Canada",
            "street": "32615 South Fraser Way",
            "city": "Abbotsford",
            "state": "British Columbia",
            "zip": "V2T 1X8",
            "latitude": 49.051584,
            "longitude": -122.320611
          }
        },
        {
          "id": "38d032c7-00d8-4963-9cce-afbe01361c59",
          "name": "AJAX \ud83c\udde8\ud83c\udde6 - Let's Get Moving",
          "phone": "(905) 215-0889",
          "is_primary": false,
          "dispatch_location": {
            "full_address": "18 Gadsden Crescent, Ajax, Ontario L1Z 0P8, Canada",
            "street": "18 Gadsden Crescent",
            "city": "Ajax",
            "state": "Ontario",
            "zip": "L1Z 0P8",
            "latitude": 43.884788,
            "longitude": -79.018916
          }
        },
        {
          "id": "7fd765ca-d938-4444-9f2d-b2ce00da7c73",
          "name": "ALEXANDRIA \ud83c\uddfa\ud83c\uddf8 - Let's Get Moving",
          "phone": "(571) 652-2399",
          "is_primary": false,
          "dispatch_location": {
            "full_address": "5680 King Centre Drive, Alexandria, Virginia 22315",
            "street": "5680 King Centre Drive",
            "city": "Alexandria",
            "state": "Virginia",
            "zip": "22315",
            "latitude": 38.771694,
            "longitude": -77.133007
          }
        },
        {
          "id": "52fda8c0-f580-4301-8bab-b1ca011ac1b8",
          "name": "ARLINGTON \ud83c\uddfa\ud83c\uddf8 - Let's Get Moving",
          "phone": "",
          "is_primary": false,
          "dispatch_location": {
            "full_address": "2420 Wilson Boulevard, Arlington, Virginia 22201",
            "street": "2420 Wilson Boulevard",
            "city": "Arlington",
            "state": "Virginia",
            "zip": "22201",
            "latitude": 38.890402,
            "longitude": -77.088088
          }
        },
        {
          "id": "d0a48f7f-993e-43ef-af81-afc40149d372",
          "name": "AURORA \ud83c\udde8\ud83c\udde6 - Let's Get Moving",
          "phone": "(905) 538-9909",
          "is_primary": false,
          "dispatch_location": {
            "full_address": "24 Industry Street, Aurora, Ontario L4G 1X7, Canada",
            "street": "24 Industry Street",
            "city": "Aurora",
            "state": "Ontario",
            "zip": "L4G 1X7",
            "latitude": 43.999539,
            "longitude": -79.456959
          }
        },
        {
          "id": "0115dd97-72a1-4054-8efe-b2b601114c84",
          "name": "AUSTIN \ud83c\uddfa\ud83c\uddf8 - Let's Get Moving",
          "phone": "(737) 340-4910",
          "is_primary": false,
          "dispatch_location": {
            "full_address": "4300 South Congress Avenue, Austin, Texas 78745",
            "street": "4300 South Congress Avenue",
            "city": "Austin",
            "state": "Texas",
            "zip": "78745",
            "latitude": 30.22007,
            "longitude": -97.767797
          }
        },
        {
          "id": "fe88ee77-674d-4e94-804b-b02401152da8",
          "name": "BARRIE \ud83c\udde8\ud83c\udde6 - Let's Get Moving ",
          "phone": "(905) 538-9909",
          "is_primary": false,
          "dispatch_location": {
            "full_address": "92 Caplan Avenue, Barrie, Ontario L4N 9J2, Canada",
            "street": "92 Caplan Avenue",
            "city": "Barrie",
            "state": "Ontario",
            "zip": "L4N 9J2",
            "latitude": 44.33849,
            "longitude": -79.697272
          }
        },
        {
          "id": "fcca4bd3-b415-445a-bb05-b0d5012f041b",
          "name": "BOCA RATON\ud83c\uddfa\ud83c\uddf8 - Let's Get Moving ",
          "phone": "(305) 515-2969",
          "is_primary": false,
          "dispatch_location": {
            "full_address": "433 Plaza Real, Boca Raton, Florida 33432",
            "street": "433 Plaza Real",
            "city": "Boca Raton",
            "state": "Florida",
            "zip": "33432",
            "latitude": 26.3554,
            "longitude": -80.085675
          }
        },
        {
          "id": "67631701-be71-40fb-bb5f-b2ff015634e6",
          "name": "BOISE \ud83c\uddfa\ud83c\uddf8 - Let's Get Moving",
          "phone": "",
          "is_primary": false,
          "dispatch_location": {
            "full_address": "3597 East Monarch Sky Lane, Meridian, Idaho 83646",
            "street": "3597 East Monarch Sky Lane",
            "city": "Meridian",
            "state": "Idaho",
            "zip": "83646",
            "latitude": 43.620916,
            "longitude": -116.349331
          }
        },
        {
          "id": "9266bbf4-d436-4570-81f9-aff6010f4d1f",
          "name": "BRAMPTON \ud83c\udde8\ud83c\udde6 - Let's Get Moving",
          "phone": "(905) 291-4747",
          "is_primary": false,
          "dispatch_location": {
            "full_address": "27b Edvac Drive, Brampton, Ontario L6S 5X8, Canada",
            "street": "27b Edvac Drive",
            "city": "Brampton",
            "state": "Ontario",
            "zip": "L6S 5X8",
            "latitude": 43.763042,
            "longitude": -79.7065
          }
        },
        {
          "id": "db41795b-f974-4bf1-8e1d-b029006d435c",
          "name": "BRANTFORD \ud83c\udde8\ud83c\udde6 - Let's Get Moving",
          "phone": "(519) 340-4949",
          "is_primary": false,
          "dispatch_location": {
            "full_address": "783 Colborne Street, Brantford, Ontario N3S 3S3, Canada",
            "street": "783 Colborne Street",
            "city": "Brantford",
            "state": "Ontario",
            "zip": "N3S 3S3",
            "latitude": 43.143433,
            "longitude": -80.226394
          }
        },
        {
          "id": "cad967b9-2489-4e9a-953c-b01c01230fde",
          "name": "BURLINGTON \ud83c\udde8\ud83c\udde6 - Let's Get Moving",
          "phone": "(905) 247-5699",
          "is_primary": false,
          "dispatch_location": {
            "full_address": "4305 Fairview Street, Burlington, Ontario L7L 2A4, Canada",
            "street": "4305 Fairview Street",
            "city": "Burlington",
            "state": "Ontario",
            "zip": "L7L 2A4",
            "latitude": 43.36866,
            "longitude": -79.770601
          }
        },
        {
          "id": "2db13ece-df79-4575-a9e2-afa7011c8591",
          "name": "BURNABY \ud83c\udde8\ud83c\udde6 - Corporate - Let's Get Moving",
          "phone": "(236) 264-0244",
          "is_primary": false,
          "dispatch_location": {
            "full_address": "3738 Keith Street, Burnaby, British Columbia V5J 0G4, Canada",
            "street": "3738 Keith Street",
            "city": "Burnaby",
            "state": "British Columbia",
            "zip": "V5J 0G4",
            "latitude": 49.20657,
            "longitude": -123.021983
          }
        },
        {
          "id": "7026b6cb-ef19-4c73-9c8c-b07c010c0d06",
          "name": "CALGARY \ud83c\udde8\ud83c\udde6 - Let's Get Moving",
          "phone": "(587) 430-3006",
          "is_primary": false,
          "dispatch_location": {
            "full_address": "1122 40 Avenue Northeast, Calgary, Alberta T2E 5T8, Canada",
            "street": "1122 40 Avenue Northeast",
            "city": "Calgary",
            "state": "Alberta",
            "zip": "T2E 5T8",
            "latitude": 51.088836,
            "longitude": -114.0357
          }
        },
        {
          "id": "12d493af-ebfe-42a1-9865-b2ba014e338d",
          "name": "CHICAGO \ud83c\uddfa\ud83c\uddf8 - Let's Get Moving",
          "phone": "",
          "is_primary": false,
          "dispatch_location": {
            "full_address": "2900 West Lake Street, Chicago, Illinois 60612",
            "street": "2900 West Lake Street",
            "city": "Chicago",
            "state": "Illinois",
            "zip": "60612",
            "latitude": 41.884415,
            "longitude": -87.699144
          }
        },
        {
          "id": "5415a0f0-87c1-4b08-ab35-b2fe0107d3c1",
          "name": "COLORADO SPRINGS \ud83c\uddfa\ud83c\uddf8 - Let's Get Moving",
          "phone": "",
          "is_primary": false,
          "dispatch_location": {
            "full_address": "3608 Galley Road, Colorado Springs, Colorado 80909",
            "street": "3608 Galley Road",
            "city": "Colorado Springs",
            "state": "Colorado",
            "zip": "80909",
            "latitude": 38.84729,
            "longitude": -104.761123
          }
        },
        {
          "id": "a241f0fe-3e7e-465b-8dbe-b150003baed4",
          "name": "COQUITLAM \ud83c\udde8\ud83c\udde6 - Let's Get Moving",
          "phone": "(604) 757-6707",
          "is_primary": false,
          "dispatch_location": {
            "full_address": "142 Brookside Drive, Port Moody, British Columbia V3H 3H6, Canada",
            "street": "142 Brookside Drive",
            "city": "Port Moody",
            "state": "British Columbia",
            "zip": "V3H 3H6",
            "latitude": 49.275019,
            "longitude": -122.830375
          }
        },
        {
          "id": "429a4b41-e14d-4037-9fd4-b31101171746",
          "name": "DES PLAINES \ud83c\uddfa\ud83c\uddf8 - Let's Get Moving",
          "phone": "",
          "is_primary": false,
          "dispatch_location": {
            "full_address": "380 East Northwest Highway, Des Plaines, Illinois 60016",
            "street": "380 East Northwest Highway",
            "city": "Des Plaines",
            "state": "Illinois",
            "zip": "60016",
            "latitude": 42.053964,
            "longitude": -87.914548
          }
        },
        {
          "id": "ebbe7b3d-5361-4be1-87ea-b1a800da904a",
          "name": "DOWNTOWN TORONTO \ud83c\udde8\ud83c\udde6 - Corporate - Let's Get Moving",
          "phone": "(647) 255-9942",
          "is_primary": false,
          "dispatch_location": {
            "full_address": "276 Carlaw Avenue, Toronto, Ontario M4M 3L1, Canada",
            "street": "276 Carlaw Avenue",
            "city": "Toronto",
            "state": "Ontario",
            "zip": "M4M 3L1",
            "latitude": 43.663321,
            "longitude": -79.341261
          }
        },
        {
          "id": "789f8718-779e-4898-a7f8-af63016c35ef",
          "name": "EDMONTON \ud83c\udde8\ud83c\udde6 - Corporate - Let's Get Moving",
          "phone": "(780) 229-6000",
          "is_primary": false,
          "dispatch_location": {
            "full_address": "9776 54 Avenue NW, Edmonton, Alberta T6E 0A9, Canada",
            "street": "9776 54 Avenue NW",
            "city": "Edmonton",
            "state": "Alberta",
            "zip": "T6E 0A9",
            "latitude": 53.490649,
            "longitude": -113.48423
          }
        },
        {
          "id": "b42494aa-fa7c-4e63-85fa-b152010e450b",
          "name": "FREDERICTON \ud83c\udde8\ud83c\udde6 - Let's Get Moving",
          "phone": "",
          "is_primary": false,
          "dispatch_location": {
            "full_address": "110 Chemin Whiting, Fredericton, New Brunswick E3B 5V5, Canada",
            "street": "110 Chemin Whiting",
            "city": "Fredericton",
            "state": "New Brunswick",
            "zip": "E3B 5V5",
            "latitude": 45.914425,
            "longitude": -66.619158
          }
        },
        {
          "id": "6a3a8a54-031b-4ff0-83b4-b1520111a109",
          "name": "HALIFAX \ud83c\udde8\ud83c\udde6 - Let's Get Moving",
          "phone": "",
          "is_primary": false,
          "dispatch_location": {
            "full_address": "380 Bedford Highway, Halifax, Nova Scotia B3M 2L4, Canada",
            "street": "380 Bedford Highway",
            "city": "Halifax",
            "state": "Nova Scotia",
            "zip": "B3M 2L4",
            "latitude": 44.682911,
            "longitude": -63.661505
          }
        },
        {
          "id": "b36dff8c-50b0-4da3-aa21-afa701218e0f",
          "name": "HAMILTON \ud83c\udde8\ud83c\udde6 - Corporate - Let's Get Moving",
          "phone": "(905) 667-9588",
          "is_primary": false,
          "dispatch_location": {
            "full_address": "65 Biggar Avenue, Hamilton, Ontario L8L 3Z3, Canada",
            "street": "65 Biggar Avenue",
            "city": "Hamilton",
            "state": "Ontario",
            "zip": "L8L 3Z3",
            "latitude": 43.25993,
            "longitude": -79.830752
          }
        },
        {
          "id": "b3ff99f6-de77-4d6c-a97c-b1970113af6a",
          "name": "HOUSTON \ud83c\uddfa\ud83c\uddf8 - Let's Get Moving",
          "phone": "(832) 631-9828",
          "is_primary": false,
          "dispatch_location": {
            "full_address": "1500 Brittmoore Road, Houston, Texas 77043",
            "street": "1500 Brittmoore Road",
            "city": "Houston",
            "state": "Texas",
            "zip": "77043",
            "latitude": 29.800579,
            "longitude": -95.568807
          }
        },
        {
          "id": "e77fb20b-cb04-4462-8c91-b3240127e8e3",
          "name": "JERSEY \ud83c\uddfa\ud83c\uddf8 - Let's Get Moving",
          "phone": "",
          "is_primary": false,
          "dispatch_location": {
            "full_address": "120 Industrial Avenue, Little Ferry, New Jersey 07643",
            "street": "120 Industrial Avenue",
            "city": "Little Ferry",
            "state": "New Jersey",
            "zip": "07643",
            "latitude": 40.845062,
            "longitude": -74.032734
          }
        },
        {
          "id": "c7000ad7-ee9e-4ac3-afef-b03400fb8cac",
          "name": "KELOWNA \ud83c\udde8\ud83c\udde6 - Let's Get Moving",
          "phone": null,
          "is_primary": false,
          "dispatch_location": {
            "full_address": "852 Crowley Avenue, Kelowna, British Columbia V1Y 7G7, Canada",
            "street": "852 Crowley Avenue",
            "city": "Kelowna",
            "state": "British Columbia",
            "zip": "V1Y 7G7",
            "latitude": 49.898463,
            "longitude": -119.483822
          }
        },
        {
          "id": "39beeafd-c61a-40c7-b5b7-afa7011f0b51",
          "name": "KINGSTON \ud83c\udde8\ud83c\udde6 - Let's Get Moving",
          "phone": "(613) 270-2770",
          "is_primary": false,
          "dispatch_location": {
            "full_address": "612 O'connor Drive, Kingston, Ontario K7P 1N3, Canada",
            "street": "612 O'connor Drive",
            "city": "Kingston",
            "state": "Ontario",
            "zip": "K7P 1N3",
            "latitude": 44.26173,
            "longitude": -76.567632
          }
        },
        {
          "id": "d811497b-19b9-465b-8124-b2280103412d",
          "name": "LETHBRIDGE \ud83c\udde8\ud83c\udde6 - Let's Get Moving",
          "phone": "(587) 952-2660",
          "is_primary": false,
          "dispatch_location": {
            "full_address": "255 31 Street N, Lethbridge, Alberta T1H 3Z4, Canada",
            "street": "255 31 Street N",
            "city": "Lethbridge",
            "state": "Alberta",
            "zip": "T1H 3Z4",
            "latitude": 49.703015,
            "longitude": -112.794519
          }
        },
        {
          "id": "102f58bb-2b51-4963-a15f-b03c016ab8ae",
          "name": "LONDON \ud83c\udde8\ud83c\udde6 - Let's Get Moving ",
          "phone": "(519) 286-9699",
          "is_primary": false,
          "dispatch_location": {
            "full_address": "1175 Brydges Street, London, Ontario N5W 2B5, Canada",
            "street": "1175 Brydges Street",
            "city": "London",
            "state": "Ontario",
            "zip": "N5W 2B5",
            "latitude": 42.986815,
            "longitude": -81.20429
          }
        },
        {
          "id": "add1c160-6908-43be-896e-b2c8012bb2be",
          "name": "LOS ANGELES \ud83c\uddfa\ud83c\uddf8 - Let's Get Moving",
          "phone": "",
          "is_primary": false,
          "dispatch_location": {
            "full_address": "15904 Strathern Street, Van Nuys, California 91406",
            "street": "15904 Strathern Street",
            "city": "Van Nuys",
            "state": "California",
            "zip": "91406",
            "latitude": 34.21559,
            "longitude": -118.47975
          }
        },
        {
          "id": "f59efc20-a5bc-4d3b-8c17-b0fd0146b4b0",
          "name": "MARIETTA \ud83c\uddfa\ud83c\uddf8 - Let's Get Moving",
          "phone": "(404) 480-8094",
          "is_primary": false,
          "dispatch_location": {
            "full_address": "1951 Canton Road Northeast, Marietta, Georgia 30066",
            "street": "1951 Canton Road Northeast",
            "city": "Marietta",
            "state": "Georgia",
            "zip": "30066",
            "latitude": 33.996582,
            "longitude": -84.524849
          }
        },
        {
          "id": "269ba66b-3cb7-428e-9329-b0700100432c",
          "name": "MARKHAM \ud83c\udde8\ud83c\udde6 - Let's Get Moving",
          "phone": "(289) 800-7177",
          "is_primary": false,
          "dispatch_location": {
            "full_address": "55 Albert Street, Markham, Ontario L3P 2T4, Canada",
            "street": "55 Albert Street",
            "city": "Markham",
            "state": "Ontario",
            "zip": "L3P 2T4",
            "latitude": 43.878025,
            "longitude": -79.25753
          }
        },
        {
          "id": "95e2702b-0be8-4ed5-84c7-b27201538673",
          "name": "MIAMI \ud83c\uddfa\ud83c\uddf8 - Let's Get Moving ",
          "phone": "(305) 515-2969",
          "is_primary": false,
          "dispatch_location": {
            "full_address": "80 Southwest 8th Street, Miami, Florida 33130",
            "street": "80 Southwest 8th Street",
            "city": "Miami",
            "state": "Florida",
            "zip": "33130",
            "latitude": 25.765687,
            "longitude": -80.19494
          }
        },
        {
          "id": "b4deb6d7-1ea1-4461-970c-b22a0106de86",
          "name": "MILTON \ud83c\udde8\ud83c\udde6 - Let's Get Moving",
          "phone": "",
          "is_primary": false,
          "dispatch_location": {
            "full_address": "330 Bronte Street South, Milton, Ontario L9T 7X1, Canada",
            "street": "330 Bronte Street South",
            "city": "Milton",
            "state": "Ontario",
            "zip": "L9T 7X1",
            "latitude": 43.501686,
            "longitude": -79.879033
          }
        },
        {
          "id": "03968db6-e24e-4edf-ad41-b09101164f54",
          "name": "MISSISSAUGA \ud83c\udde8\ud83c\udde6 - Corporate - Let's Get Moving",
          "phone": "(905) 917-1934",
          "is_primary": false,
          "dispatch_location": {
            "full_address": "3225 Lenworth Drive, Mississauga, Ontario L4X 2G6, Canada",
            "street": "3225 Lenworth Drive",
            "city": "Mississauga",
            "state": "Ontario",
            "zip": "L4X 2G6",
            "latitude": 43.624865,
            "longitude": -79.578198
          }
        },
        {
          "id": "1b745fb6-262e-4112-9191-b15a01248804",
          "name": "MONCTON \ud83c\udde8\ud83c\udde6 - Let's Get Moving",
          "phone": "",
          "is_primary": false,
          "dispatch_location": {
            "full_address": "1067 Champlain Street, Dieppe, New Brunswick E1A 1P9, Canada",
            "street": "1067 Champlain Street",
            "city": "Dieppe",
            "state": "New Brunswick",
            "zip": "E1A 1P9",
            "latitude": 46.104705,
            "longitude": -64.705086
          }
        },
        {
          "id": "60c23b99-d479-43e0-9a2a-b06800cc1eed",
          "name": "MONTR\u00c8AL \ud83c\udde8\ud83c\udde6 - Corporate - Let's Get Moving",
          "phone": "(514) 556-8898",
          "is_primary": false,
          "dispatch_location": {
            "full_address": "3700 Rue Griffith, Saint-Laurent, Quebec H4T 2B3, Canada",
            "street": "3700 Rue Griffith",
            "city": "Saint-Laurent",
            "state": "Quebec",
            "zip": "H4T 2B3",
            "latitude": 45.485123,
            "longitude": -73.697172
          }
        },
        {
          "id": "6f64bd9d-60f5-41a6-ba55-b235011c9b19",
          "name": "MovedIn",
          "phone": "",
          "is_primary": false,
          "dispatch_location": {
            "full_address": "21 Four Seasons Place, Etobicoke, Ontario M9B 0A5, Canada",
            "street": "21 Four Seasons Place",
            "city": "Etobicoke",
            "state": "Ontario",
            "zip": "M9B 0A5",
            "latitude": 43.646692,
            "longitude": -79.561877
          }
        },
        {
          "id": "6ccb691b-ecc1-4a4a-b43a-b2cd00fee5d6",
          "name": "NASHVILLE \ud83c\uddfa\ud83c\uddf8 - Let's Get Moving",
          "phone": "(629) 240-8700",
          "is_primary": false,
          "dispatch_location": {
            "full_address": "1916 Patterson Street, Nashville, Tennessee 37203",
            "street": "1916 Patterson Street",
            "city": "Nashville",
            "state": "Tennessee",
            "zip": "37203",
            "latitude": 36.155773,
            "longitude": -86.801977
          }
        },
        {
          "id": "32693c87-32ae-4f5c-8449-b28201126d19",
          "name": "NEW JERSEY \ud83c\uddfa\ud83c\uddf8 - Let's Get Moving",
          "phone": "(862) 799-8111",
          "is_primary": false,
          "dispatch_location": {
            "full_address": "1275 Bloomfield Avenue, Fairfield, New Jersey 07004",
            "street": "1275 Bloomfield Avenue",
            "city": "Fairfield",
            "state": "New Jersey",
            "zip": "07004",
            "latitude": 40.86167,
            "longitude": -74.319035
          }
        },
        {
          "id": "620a493c-b52d-476a-84d8-aa2400334bf0",
          "name": "NORTH YORK TORONTO  \ud83c\udde8\ud83c\udde6 - Corporate - Let's Get Moving",
          "phone": "(416) 955-0079",
          "is_primary": true,
          "dispatch_location": {
            "full_address": "945 Wilson Ave, North York, ON M3K 1E8, Canada",
            "street": "945 Wilson Ave",
            "city": "Toronto",
            "state": "ON",
            "zip": "M3K 1E8",
            "latitude": 43.7285243,
            "longitude": -79.4727536
          }
        },
        {
          "id": "19ba64ac-d362-41aa-a299-b19e00b55942",
          "name": "NORTHERN VIRGINIA \ud83c\uddfa\ud83c\uddf8  - Let's Get Moving",
          "phone": "(571) 378-6477",
          "is_primary": false,
          "dispatch_location": {
            "full_address": "44330 Mercure Circle, Sterling, Virginia 20166",
            "street": "44330 Mercure Circle",
            "city": "Sterling",
            "state": "Virginia",
            "zip": "20166",
            "latitude": 38.986167,
            "longitude": -77.472141
          }
        },
        {
          "id": "9cb6b34b-b213-437b-a64b-b05b012f2b87",
          "name": "OAKVILLE \ud83c\udde8\ud83c\udde6 - Let's Get Moving",
          "phone": "(289) 295-3144",
          "is_primary": false,
          "dispatch_location": {
            "full_address": "550 Speers Road, Oakville, Ontario L6K 2G3, Canada",
            "street": "550 Speers Road",
            "city": "Oakville",
            "state": "Ontario",
            "zip": "L6K 2G3",
            "latitude": 43.434821,
            "longitude": -79.700278
          }
        },
        {
          "id": "30b51e41-8b3d-499a-8cb1-b1d8012040d1",
          "name": "OSHAWA  \ud83c\udde8\ud83c\udde6 - Lets Get Moving",
          "phone": "",
          "is_primary": false,
          "dispatch_location": {
            "full_address": "285 Taunton Road East, Oshawa, Ontario L1G 7L1, Canada",
            "street": "285 Taunton Road East",
            "city": "Oshawa",
            "state": "Ontario",
            "zip": "L1G 7L1",
            "latitude": 43.934755,
            "longitude": -78.866785
          }
        },
        {
          "id": "cf79d469-aaec-49c7-b7c6-afdf0030bacf",
          "name": "OTTAWA \ud83c\udde8\ud83c\udde6 - Let's Get Moving",
          "phone": "(613) 907-9115",
          "is_primary": false,
          "dispatch_location": {
            "full_address": "1441 Stittsville Main Street, Stittsville, Ontario K2S 1E5, Canada",
            "street": "1441 Stittsville Main Street",
            "city": "Stittsville",
            "state": "Ontario",
            "zip": "K2S 1E5",
            "latitude": 45.261372,
            "longitude": -75.922449
          }
        },
        {
          "id": "94771d6a-a269-4b4f-98a8-b04a014fb3b2",
          "name": "PETERBOROUGH \ud83c\udde8\ud83c\udde6 - Let's Get Moving",
          "phone": "(705) 805-9050",
          "is_primary": false,
          "dispatch_location": {
            "full_address": "796 Technology Drive, Peterborough, Ontario K9J 6X7, Canada",
            "street": "796 Technology Drive",
            "city": "Peterborough",
            "state": "Ontario",
            "zip": "K9J 6X7",
            "latitude": 44.283587,
            "longitude": -78.29004
          }
        },
        {
          "id": "ad46f319-93ac-47e0-a6fd-b2a0014b4b20",
          "name": "PHILADELPHIA  \ud83c\uddfa\ud83c\uddf8 - Let's Get Moving",
          "phone": "",
          "is_primary": false,
          "dispatch_location": {
            "full_address": "325 Chestnut Street, Philadelphia, Pennsylvania 19106",
            "street": "325 Chestnut Street",
            "city": "Philadelphia",
            "state": "Pennsylvania",
            "zip": "19106",
            "latitude": 39.949026,
            "longitude": -75.147252
          }
        },
        {
          "id": "c76e3222-996b-4c68-a9ab-b272015410b5",
          "name": "PHOENIX \ud83c\uddfa\ud83c\uddf8 - Corporate - Let's Get Moving",
          "phone": "(602) 806-7272",
          "is_primary": false,
          "dispatch_location": {
            "full_address": "1005 East Madison Street, Phoenix, Arizona 85034",
            "street": "1005 East Madison Street",
            "city": "Phoenix",
            "state": "Arizona",
            "zip": "85034",
            "latitude": 33.445355,
            "longitude": -112.05953
          }
        },
        {
          "id": "656b53fc-fb17-452f-9b36-b2c9016941cf",
          "name": "RAPID TRANSITIONS \ud83c\udde8\ud83c\udde6 (OOT-LONG DISTANCE)",
          "phone": "",
          "is_primary": false,
          "dispatch_location": {
            "full_address": "1175 Brydges Street, London, Ontario N5W 2B5, Canada",
            "street": "1175 Brydges Street",
            "city": "London",
            "state": "Ontario",
            "zip": "N5W 2B5",
            "latitude": 42.986815,
            "longitude": -81.20429
          }
        },
        {
          "id": "1dc33c36-acc3-46fa-a649-b0190054d7e7",
          "name": "REGINA \ud83c\udde8\ud83c\udde6 - Let's Get Moving",
          "phone": "(306) 206-2240",
          "is_primary": false,
          "dispatch_location": {
            "full_address": "2125 11th Avenue, Regina, Saskatchewan S4P 3X3, Canada",
            "street": "2125 11th Avenue",
            "city": "Regina",
            "state": "Saskatchewan",
            "zip": "S4P 3X3",
            "latitude": 50.450146,
            "longitude": -104.611855
          }
        }
      ]
    },
    "users": {
      "total_users": 50,
      "users": [
        {
          "id": "f318d454-88d6-4e1a-c735-08d6b9037183",
          "name": " Accountant LGM",
          "title": "Accountant",
          "email": "aabetala@cabetala.com",
          "primary_branch": {
            "id": null,
            "name": null
          },
          "role": {
            "id": "e5e53169-0149-42a2-bb0b-f28760ef2365",
            "name": "Accounting"
          }
        },
        {
          "id": "57a328d4-910d-4545-cc1f-08ddcad6ba0b",
          "name": " Alejandro",
          "title": "",
          "email": "alejandro@letsgetmovinggroup.com",
          "primary_branch": {
            "id": "620a493c-b52d-476a-84d8-aa2400334bf0",
            "name": "NORTH YORK TORONTO  \ud83c\udde8\ud83c\udde6 - Corporate - Let's Get Moving"
          },
          "role": {
            "id": "0390f577-5a11-4ece-97c8-573693554fce",
            "name": "Sales Person"
          }
        },
        {
          "id": "03e76d7b-0a65-4c1e-aa4a-08dbd3c5e830",
          "name": " Andres I",
          "title": "Moving Consultant",
          "email": "andres@letsgetmovinggroup.com",
          "primary_branch": {
            "id": null,
            "name": null
          },
          "role": {
            "id": "0390f577-5a11-4ece-97c8-573693554fce",
            "name": "Sales Person"
          }
        },
        {
          "id": "bc5517f5-c8fd-433e-25b5-08dd6a24dff6",
          "name": " Ash N",
          "title": "Moving Consultant",
          "email": "aakash@letsgetmovinggroup.com",
          "primary_branch": {
            "id": "620a493c-b52d-476a-84d8-aa2400334bf0",
            "name": "NORTH YORK TORONTO  \ud83c\udde8\ud83c\udde6 - Corporate - Let's Get Moving"
          },
          "role": {
            "id": "0390f577-5a11-4ece-97c8-573693554fce",
            "name": "Sales Person"
          }
        },
        {
          "id": "0cf2621e-e4ee-48c2-6402-08ddb8ccc275",
          "name": " Baca",
          "title": "",
          "email": "rafael@letsgetmovinggroup.com",
          "primary_branch": {
            "id": "620a493c-b52d-476a-84d8-aa2400334bf0",
            "name": "NORTH YORK TORONTO  \ud83c\udde8\ud83c\udde6 - Corporate - Let's Get Moving"
          },
          "role": {
            "id": "0390f577-5a11-4ece-97c8-573693554fce",
            "name": "Sales Person"
          }
        },
        {
          "id": "0d7aa5e0-7a14-4ab1-e220-08ddb8c9a2f2",
          "name": " Carlo",
          "title": "",
          "email": "carlo@letsgetmovinggroup.com",
          "primary_branch": {
            "id": "620a493c-b52d-476a-84d8-aa2400334bf0",
            "name": "NORTH YORK TORONTO  \ud83c\udde8\ud83c\udde6 - Corporate - Let's Get Moving"
          },
          "role": {
            "id": "0390f577-5a11-4ece-97c8-573693554fce",
            "name": "Sales Person"
          }
        },
        {
          "id": "c9e0e885-06f9-476d-bfe2-08dd82988744",
          "name": " Cheyann CR",
          "title": "Moving Consultant",
          "email": "cheyana@letsgetmovinggroup.com",
          "primary_branch": {
            "id": "620a493c-b52d-476a-84d8-aa2400334bf0",
            "name": "NORTH YORK TORONTO  \ud83c\udde8\ud83c\udde6 - Corporate - Let's Get Moving"
          },
          "role": {
            "id": "0390f577-5a11-4ece-97c8-573693554fce",
            "name": "Sales Person"
          }
        },
        {
          "id": "ea9d36a6-a1cc-4d28-1d99-08dd6a159b6c",
          "name": " Colin C",
          "title": "Moving Consultant",
          "email": "colin@letsgetmovinggroup.com",
          "primary_branch": {
            "id": "620a493c-b52d-476a-84d8-aa2400334bf0",
            "name": "NORTH YORK TORONTO  \ud83c\udde8\ud83c\udde6 - Corporate - Let's Get Moving"
          },
          "role": {
            "id": "0390f577-5a11-4ece-97c8-573693554fce",
            "name": "Sales Person"
          }
        },
        {
          "id": "578ac9d0-bf5b-4104-d8de-08dd57ba051f",
          "name": " Daniel A",
          "title": "Moving Consultant",
          "email": "daniela@letsgetmovinggroup.com",
          "primary_branch": {
            "id": null,
            "name": null
          },
          "role": {
            "id": "0390f577-5a11-4ece-97c8-573693554fce",
            "name": "Sales Person"
          }
        },
        {
          "id": "ce5d1b67-3aae-490a-71da-08dcb515ca53",
          "name": " Darrius S",
          "title": "Sales Consultant",
          "email": "darrius@letsgetmovinggroup.com",
          "primary_branch": {
            "id": null,
            "name": null
          },
          "role": {
            "id": "0390f577-5a11-4ece-97c8-573693554fce",
            "name": "Sales Person"
          }
        },
        {
          "id": "45374458-6503-4377-8255-08ddcae0cb34",
          "name": " Daud",
          "title": "",
          "email": "daud@letsgetmovinggroup.com",
          "primary_branch": {
            "id": "620a493c-b52d-476a-84d8-aa2400334bf0",
            "name": "NORTH YORK TORONTO  \ud83c\udde8\ud83c\udde6 - Corporate - Let's Get Moving"
          },
          "role": {
            "id": "0390f577-5a11-4ece-97c8-573693554fce",
            "name": "Sales Person"
          }
        },
        {
          "id": "b4273596-d6b4-49ed-6403-08ddb8ccc275",
          "name": " Elizabeth",
          "title": "",
          "email": "elizabeth@letsgetmovinggroup.com",
          "primary_branch": {
            "id": "620a493c-b52d-476a-84d8-aa2400334bf0",
            "name": "NORTH YORK TORONTO  \ud83c\udde8\ud83c\udde6 - Corporate - Let's Get Moving"
          },
          "role": {
            "id": "0390f577-5a11-4ece-97c8-573693554fce",
            "name": "Sales Person"
          }
        },
        {
          "id": "d3b5aa71-7f7e-4fd3-4665-08dbe0c86df4",
          "name": " Enola L",
          "title": "Sales Manager",
          "email": "enola@letsgetmovinggroup.com",
          "primary_branch": {
            "id": "620a493c-b52d-476a-84d8-aa2400334bf0",
            "name": "NORTH YORK TORONTO  \ud83c\udde8\ud83c\udde6 - Corporate - Let's Get Moving"
          },
          "role": {
            "id": "511a4f7c-d465-4e81-a1b8-ed40827075ee",
            "name": "Sales Manager"
          }
        },
        {
          "id": "01b23246-423a-4a9d-188f-08dda9a21308",
          "name": " Esteban F",
          "title": "",
          "email": "estebanf@letsgetmovinggroup.com",
          "primary_branch": {
            "id": "620a493c-b52d-476a-84d8-aa2400334bf0",
            "name": "NORTH YORK TORONTO  \ud83c\udde8\ud83c\udde6 - Corporate - Let's Get Moving"
          },
          "role": {
            "id": "0390f577-5a11-4ece-97c8-573693554fce",
            "name": "Sales Person"
          }
        },
        {
          "id": "488d3a7c-8ea5-4025-25b4-08dd6a24dff6",
          "name": " Gloria A",
          "title": "Moving Consultant",
          "email": "gloria@letsgetmovinggroup.com",
          "primary_branch": {
            "id": "620a493c-b52d-476a-84d8-aa2400334bf0",
            "name": "NORTH YORK TORONTO  \ud83c\udde8\ud83c\udde6 - Corporate - Let's Get Moving"
          },
          "role": {
            "id": "0390f577-5a11-4ece-97c8-573693554fce",
            "name": "Sales Person"
          }
        },
        {
          "id": "fe7df4d2-e688-40ef-16ac-08dc7ef24e0e",
          "name": " Jamie S",
          "title": "Moving Consultant",
          "email": "jamie@letsgetmovinggroup.com",
          "primary_branch": {
            "id": null,
            "name": null
          },
          "role": {
            "id": "0390f577-5a11-4ece-97c8-573693554fce",
            "name": "Sales Person"
          }
        },
        {
          "id": "98815867-3b11-490f-cadf-08ddc7aec65c",
          "name": " Jason",
          "title": "",
          "email": "jason@letsgetmovinggroup.com",
          "primary_branch": {
            "id": "620a493c-b52d-476a-84d8-aa2400334bf0",
            "name": "NORTH YORK TORONTO  \ud83c\udde8\ud83c\udde6 - Corporate - Let's Get Moving"
          },
          "role": {
            "id": "0390f577-5a11-4ece-97c8-573693554fce",
            "name": "Sales Person"
          }
        },
        {
          "id": "bae962a9-bf3e-4dce-0d55-08ddc7c0f730",
          "name": " John",
          "title": "",
          "email": "syed@letsgetmovinggroup.com",
          "primary_branch": {
            "id": "620a493c-b52d-476a-84d8-aa2400334bf0",
            "name": "NORTH YORK TORONTO  \ud83c\udde8\ud83c\udde6 - Corporate - Let's Get Moving"
          },
          "role": {
            "id": "0390f577-5a11-4ece-97c8-573693554fce",
            "name": "Sales Person"
          }
        },
        {
          "id": "a14db8c5-9ec0-496b-4e15-08dcb1d4b8b8",
          "name": " Josephine O",
          "title": "Sales Consultant",
          "email": "josephine@letsgetmovinggroup.com",
          "primary_branch": {
            "id": null,
            "name": null
          },
          "role": {
            "id": "0390f577-5a11-4ece-97c8-573693554fce",
            "name": "Sales Person"
          }
        },
        {
          "id": "6a5a1cfb-c7a7-4bda-0c78-08dcc8e667d8",
          "name": " Kim T",
          "title": "Sales Consultant",
          "email": "toyin@letsgetmovinggroup.com",
          "primary_branch": {
            "id": null,
            "name": null
          },
          "role": {
            "id": "0390f577-5a11-4ece-97c8-573693554fce",
            "name": "Sales Person"
          }
        },
        {
          "id": "dbcc0a4e-ec7c-4b47-1111-08dbe0db0283",
          "name": " Lawrence W",
          "title": "Moving Consultant",
          "email": "lawrence@letsgetmovinggroup.com",
          "primary_branch": {
            "id": "620a493c-b52d-476a-84d8-aa2400334bf0",
            "name": "NORTH YORK TORONTO  \ud83c\udde8\ud83c\udde6 - Corporate - Let's Get Moving"
          },
          "role": {
            "id": "0390f577-5a11-4ece-97c8-573693554fce",
            "name": "Sales Person"
          }
        },
        {
          "id": "14a62bb8-9202-4da7-ac0a-08dd57c3d1b7",
          "name": " Lead Administrator",
          "title": "",
          "email": "leadmanagement@letsgetmovinggroup.com",
          "primary_branch": {
            "id": null,
            "name": null
          },
          "role": {
            "id": "d96d3fa3-0501-466e-a932-7539269a94b2",
            "name": "Admin"
          }
        },
        {
          "id": "dc6ff23e-6eae-4fb3-db13-08ddc78a02af",
          "name": " Neeyomi",
          "title": "",
          "email": "neeyomi@letsgetmovinggroup.com",
          "primary_branch": {
            "id": "620a493c-b52d-476a-84d8-aa2400334bf0",
            "name": "NORTH YORK TORONTO  \ud83c\udde8\ud83c\udde6 - Corporate - Let's Get Moving"
          },
          "role": {
            "id": "0390f577-5a11-4ece-97c8-573693554fce",
            "name": "Sales Person"
          }
        },
        {
          "id": "3234c0da-a37c-4620-8d08-08da9ef527a3",
          "name": " Raphael O",
          "title": "",
          "email": "raphael@letsgetmovingcanada.com",
          "primary_branch": {
            "id": null,
            "name": null
          },
          "role": {
            "id": "511a4f7c-d465-4e81-a1b8-ed40827075ee",
            "name": "Sales Manager"
          }
        },
        {
          "id": "bf03c2ae-315a-4b1f-4f56-08dda9585b74",
          "name": " RG",
          "title": "",
          "email": "rachit@letsgetmovinggroup.com",
          "primary_branch": {
            "id": "620a493c-b52d-476a-84d8-aa2400334bf0",
            "name": "NORTH YORK TORONTO  \ud83c\udde8\ud83c\udde6 - Corporate - Let's Get Moving"
          },
          "role": {
            "id": "0390f577-5a11-4ece-97c8-573693554fce",
            "name": "Sales Person"
          }
        },
        {
          "id": "05ab5eaa-1809-4ef4-66df-08db77a31c2c",
          "name": " Rhona D",
          "title": "Moving Consultant",
          "email": "rhona@letsgetmovinggroup.com",
          "primary_branch": {
            "id": null,
            "name": null
          },
          "role": {
            "id": "0390f577-5a11-4ece-97c8-573693554fce",
            "name": "Sales Person"
          }
        },
        {
          "id": "25cbfb1e-64fb-40f7-98f2-08dd825a2949",
          "name": " Rhythm K",
          "title": "Moving Consultant",
          "email": "rhythm@letsgetmovinggroup.com",
          "primary_branch": {
            "id": "620a493c-b52d-476a-84d8-aa2400334bf0",
            "name": "NORTH YORK TORONTO  \ud83c\udde8\ud83c\udde6 - Corporate - Let's Get Moving"
          },
          "role": {
            "id": "0390f577-5a11-4ece-97c8-573693554fce",
            "name": "Sales Person"
          }
        },
        {
          "id": "cf679e6a-4624-4387-d36a-08ddcad11df1",
          "name": " Rob",
          "title": "",
          "email": "rob@letsgetmovinggroup.com",
          "primary_branch": {
            "id": "620a493c-b52d-476a-84d8-aa2400334bf0",
            "name": "NORTH YORK TORONTO  \ud83c\udde8\ud83c\udde6 - Corporate - Let's Get Moving"
          },
          "role": {
            "id": "0390f577-5a11-4ece-97c8-573693554fce",
            "name": "Sales Person"
          }
        },
        {
          "id": "ec0b47d2-a1ed-4000-3af1-08ddb8c9d724",
          "name": " Rushawn",
          "title": "",
          "email": "rushawn@letsgetmovinggroup.com",
          "primary_branch": {
            "id": "620a493c-b52d-476a-84d8-aa2400334bf0",
            "name": "NORTH YORK TORONTO  \ud83c\udde8\ud83c\udde6 - Corporate - Let's Get Moving"
          },
          "role": {
            "id": "0390f577-5a11-4ece-97c8-573693554fce",
            "name": "Sales Person"
          }
        },
        {
          "id": "4450f3d7-e363-42f6-7e4b-08ddb8cc0ddb",
          "name": " Said",
          "title": "",
          "email": "said@letsgetmovinggroup.com",
          "primary_branch": {
            "id": "620a493c-b52d-476a-84d8-aa2400334bf0",
            "name": "NORTH YORK TORONTO  \ud83c\udde8\ud83c\udde6 - Corporate - Let's Get Moving"
          },
          "role": {
            "id": "0390f577-5a11-4ece-97c8-573693554fce",
            "name": "Sales Person"
          }
        },
        {
          "id": "4cc9fb80-8659-49c8-a2db-08d8133eb964",
          "name": " Sam L",
          "title": "Sales Director",
          "email": "sam@letsgetmovinggroup.com",
          "primary_branch": {
            "id": null,
            "name": null
          },
          "role": {
            "id": "511a4f7c-d465-4e81-a1b8-ed40827075ee",
            "name": "Sales Manager"
          }
        },
        {
          "id": "1ee3f2ee-f598-4401-5f10-08dbf66cf305",
          "name": " Sebastian DL",
          "title": "",
          "email": "sebastian@letsgetmovinggroup.com",
          "primary_branch": {
            "id": "620a493c-b52d-476a-84d8-aa2400334bf0",
            "name": "NORTH YORK TORONTO  \ud83c\udde8\ud83c\udde6 - Corporate - Let's Get Moving"
          },
          "role": {
            "id": "511a4f7c-d465-4e81-a1b8-ed40827075ee",
            "name": "Sales Manager"
          }
        },
        {
          "id": "8cbdc6f3-d816-4273-abe6-08dd57c3d1b7",
          "name": " Vanshika T",
          "title": "Moving Consultant",
          "email": "vanshika@letsgetmovinggroup.com",
          "primary_branch": {
            "id": null,
            "name": null
          },
          "role": {
            "id": "0390f577-5a11-4ece-97c8-573693554fce",
            "name": "Sales Person"
          }
        },
        {
          "id": "dcc8d8ea-2946-4d71-16ad-08dc7ef24e0e",
          "name": " Vivian O",
          "title": "Moving Consultant",
          "email": "vivian@letsgetmovinggroup.com",
          "primary_branch": {
            "id": null,
            "name": null
          },
          "role": {
            "id": "0390f577-5a11-4ece-97c8-573693554fce",
            "name": "Sales Person"
          }
        },
        {
          "id": "34872967-fc7c-4af2-10c0-08d950b6ddc2",
          "name": "Customer Service",
          "title": "CS",
          "email": "customerservice@letsgetmovinggroup.com",
          "primary_branch": {
            "id": null,
            "name": null
          },
          "role": {
            "id": "d96d3fa3-0501-466e-a932-7539269a94b2",
            "name": "Admin"
          }
        },
        {
          "id": "e7538782-1e3d-42b7-8434-08dca10bec22",
          "name": "Google Ads ",
          "title": "Google Ads Team",
          "email": "google_ads@letsgetmovinggroup.com",
          "primary_branch": {
            "id": "620a493c-b52d-476a-84d8-aa2400334bf0",
            "name": "NORTH YORK TORONTO  \ud83c\udde8\ud83c\udde6 - Corporate - Let's Get Moving"
          },
          "role": {
            "id": "d96d3fa3-0501-466e-a932-7539269a94b2",
            "name": "Admin"
          }
        },
        {
          "id": "dcb21327-59eb-4d55-3dca-08dda958bfb0",
          "name": "Let's Get Moving Abbotsford",
          "title": "",
          "email": "abbotsford@letsgetmovinggroup.com",
          "primary_branch": {
            "id": "b16b875e-afff-4b0f-9901-b2fa00eec2da",
            "name": "ABBOTSFORD \ud83c\udde8\ud83c\udde6 - Let's Get Moving "
          },
          "role": {
            "id": "aaf982e6-3d56-4b27-e94d-08db9037b5bf",
            "name": "Franchisee Manager"
          }
        },
        {
          "id": "0bb47c43-635a-4cc2-999b-08dd4454a70d",
          "name": "Let's Get Moving Ajax",
          "title": "Franchise",
          "email": "ajax@letsgetmoving.ca",
          "primary_branch": {
            "id": "38d032c7-00d8-4963-9cce-afbe01361c59",
            "name": "AJAX \ud83c\udde8\ud83c\udde6 - Let's Get Moving"
          },
          "role": {
            "id": "aaf982e6-3d56-4b27-e94d-08db9037b5bf",
            "name": "Franchisee Manager"
          }
        },
        {
          "id": "cbe4f2be-d1b0-4d87-7721-08dcc09ecf13",
          "name": "Let's Get Moving Arlington",
          "title": "Franchisee",
          "email": "northernvirginia@letsgetmovingusa.com",
          "primary_branch": {
            "id": "19ba64ac-d362-41aa-a299-b19e00b55942",
            "name": "NORTHERN VIRGINIA \ud83c\uddfa\ud83c\uddf8  - Let's Get Moving"
          },
          "role": {
            "id": "aaf982e6-3d56-4b27-e94d-08db9037b5bf",
            "name": "Franchisee Manager"
          }
        },
        {
          "id": "ab4e6d3d-23f9-483a-25ba-08dabd93a64e",
          "name": "Let's Get Moving Aurora",
          "title": "Franchisee",
          "email": "info@letsgetmovingyork.com",
          "primary_branch": {
            "id": null,
            "name": null
          },
          "role": {
            "id": "aaf982e6-3d56-4b27-e94d-08db9037b5bf",
            "name": "Franchisee Manager"
          }
        },
        {
          "id": "0cf7d6ca-0860-4672-4345-08dd775643bc",
          "name": "Let's Get Moving Austin",
          "title": "Franchisee",
          "email": "austin@letsgetmovingusa.com",
          "primary_branch": {
            "id": null,
            "name": null
          },
          "role": {
            "id": "aaf982e6-3d56-4b27-e94d-08db9037b5bf",
            "name": "Franchisee Manager"
          }
        },
        {
          "id": "d6d2ef4f-2ca7-4f3d-98f1-08dd825a2949",
          "name": "Let's Get Moving Boise",
          "title": "Franchisee",
          "email": "Boise@letsgetmovingusa.com",
          "primary_branch": {
            "id": null,
            "name": null
          },
          "role": {
            "id": "aaf982e6-3d56-4b27-e94d-08db9037b5bf",
            "name": "Franchisee Manager"
          }
        },
        {
          "id": "83422021-74b6-46b1-a9c2-08db526fd83e",
          "name": "Let's Get Moving Brampton",
          "title": "Franchisee",
          "email": "brampton@letsgetmoving.ca",
          "primary_branch": {
            "id": "9266bbf4-d436-4570-81f9-aff6010f4d1f",
            "name": "BRAMPTON \ud83c\udde8\ud83c\udde6 - Let's Get Moving"
          },
          "role": {
            "id": "aaf982e6-3d56-4b27-e94d-08db9037b5bf",
            "name": "Franchisee Manager"
          }
        },
        {
          "id": "7c47a631-8087-49d6-ea79-08db7e06ef95",
          "name": "Lets Get Moving Brantford",
          "title": "Franchisee",
          "email": "brantford@letsgetmoving.ca",
          "primary_branch": {
            "id": "db41795b-f974-4bf1-8e1d-b029006d435c",
            "name": "BRANTFORD \ud83c\udde8\ud83c\udde6 - Let's Get Moving"
          },
          "role": {
            "id": "aaf982e6-3d56-4b27-e94d-08db9037b5bf",
            "name": "Franchisee Manager"
          }
        },
        {
          "id": "d7231308-18b6-4f50-cc59-08dba8433889",
          "name": "Lets Get Moving Burnaby - Shahbaz Grewal",
          "title": "Operations Manager",
          "email": "vancouver@letsgetmoving.ca",
          "primary_branch": {
            "id": "2db13ece-df79-4575-a9e2-afa7011c8591",
            "name": "BURNABY \ud83c\udde8\ud83c\udde6 - Corporate - Let's Get Moving"
          },
          "role": {
            "id": "698da3fc-aeff-4c2c-d333-08d890701188",
            "name": "Operations Manager"
          }
        },
        {
          "id": "0c99813a-e68c-447b-ce52-08dbb4548f9c",
          "name": "Let's Get Moving Calgary",
          "title": "Franchisee",
          "email": "calgary@letsgetmoving.ca",
          "primary_branch": {
            "id": "7026b6cb-ef19-4c73-9c8c-b07c010c0d06",
            "name": "CALGARY \ud83c\udde8\ud83c\udde6 - Let's Get Moving"
          },
          "role": {
            "id": "aaf982e6-3d56-4b27-e94d-08db9037b5bf",
            "name": "Franchisee Manager"
          }
        },
        {
          "id": "5be50a1d-536d-4b90-a556-08dd737081fa",
          "name": "Let's Get Moving Chicago",
          "title": "Franchisee",
          "email": "chicago@letsgetmovingusa.com",
          "primary_branch": {
            "id": null,
            "name": null
          },
          "role": {
            "id": "aaf982e6-3d56-4b27-e94d-08db9037b5bf",
            "name": "Franchisee Manager"
          }
        },
        {
          "id": "f7850430-45db-440e-9673-08db2a9a8232",
          "name": "Let's Get Moving Downtown Toronto/North York - Arshdeep Singh",
          "title": "Operations Manager",
          "email": "info@letsgetmoving.ca",
          "primary_branch": {
            "id": "620a493c-b52d-476a-84d8-aa2400334bf0",
            "name": "NORTH YORK TORONTO  \ud83c\udde8\ud83c\udde6 - Corporate - Let's Get Moving"
          },
          "role": {
            "id": "698da3fc-aeff-4c2c-d333-08d890701188",
            "name": "Operations Manager"
          }
        },
        {
          "id": "4db3b338-6e87-47ee-c417-08dbba4214a0",
          "name": "Let's Get Moving Edmonton - Danylo Z",
          "title": "Ops Manager",
          "email": "edmonton@letsgetmoving.ca",
          "primary_branch": {
            "id": "789f8718-779e-4898-a7f8-af63016c35ef",
            "name": "EDMONTON \ud83c\udde8\ud83c\udde6 - Corporate - Let's Get Moving"
          },
          "role": {
            "id": "698da3fc-aeff-4c2c-d333-08d890701188",
            "name": "Operations Manager"
          }
        },
        {
          "id": "da815168-6d35-4e86-c6b5-08dcb8afe9f6",
          "name": "Lets Get Moving Fredericton",
          "title": "Franchisee",
          "email": "fredericton@letsgetmoving.ca",
          "primary_branch": {
            "id": null,
            "name": null
          },
          "role": {
            "id": "aaf982e6-3d56-4b27-e94d-08db9037b5bf",
            "name": "Franchisee Manager"
          }
        }
      ]
    },
    "inventory": {
      "total_items": 50,
      "inventory_items": [
        {
          "id": "2b05d742-d222-4ceb-8334-aa2400334a5b",
          "name": "Air Conditioner",
          "description": "approx 1' cube",
          "short_code": 101,
          "volume": 5.0,
          "weight": 35.0
        },
        {
          "id": "34c07756-fc12-4d96-a779-aa2400334a5b",
          "name": "Air Conditioner",
          "description": "approx 2' x 2' x 4'",
          "short_code": 102,
          "volume": 10.0,
          "weight": 70.0
        },
        {
          "id": "a9f49df1-2a3f-40f9-ae2f-aa2400334a5b",
          "name": "Air Conditioner",
          "description": "approx 1.5' x 1.5' x 4'",
          "short_code": 103,
          "volume": 8.0,
          "weight": 56.0
        },
        {
          "id": "2512a69d-420c-43fb-8943-aa2400334a5b",
          "name": "Air Purifier",
          "description": null,
          "short_code": 104,
          "volume": 3.0,
          "weight": 21.0
        },
        {
          "id": "c08be657-4e5c-4c27-bb8e-aa2400334a5b",
          "name": "Arm Chair",
          "description": null,
          "short_code": 105,
          "volume": 12.0,
          "weight": 84.0
        },
        {
          "id": "eec53584-ab46-43bf-86ed-aa2400334a5b",
          "name": "Armoire",
          "description": "approx 4' x 8'",
          "short_code": 107,
          "volume": 60.0,
          "weight": 420.0
        },
        {
          "id": "0e9cfa9f-4042-4ee7-999c-aa2400334a5b",
          "name": "Armoire",
          "description": "approx 4' x 7'",
          "short_code": 108,
          "volume": 50.0,
          "weight": 350.0
        },
        {
          "id": "d3de6ef9-02a8-4f60-bde8-aa2400334a5b",
          "name": "Armoire",
          "description": "approx 3' x 7'",
          "short_code": 106,
          "volume": 40.0,
          "weight": 280.0
        },
        {
          "id": "70861943-4171-4d96-8f7b-aa2400334a5b",
          "name": "Baby Grand Piano",
          "description": null,
          "short_code": 109,
          "volume": 80.0,
          "weight": 560.0
        },
        {
          "id": "ef54bfb4-44c5-4799-8b94-aa2400334a5b",
          "name": "Bakers Rack",
          "description": null,
          "short_code": 110,
          "volume": 40.0,
          "weight": 280.0
        },
        {
          "id": "4244934f-8c62-4e82-978c-aa2400334a5b",
          "name": "Bar Stool",
          "description": null,
          "short_code": 111,
          "volume": 6.0,
          "weight": 42.0
        },
        {
          "id": "b4ddd7e3-e643-43fa-b62b-aa2400334a5b",
          "name": "Basket",
          "description": null,
          "short_code": 112,
          "volume": 5.0,
          "weight": 35.0
        },
        {
          "id": "8543fe5a-4870-4779-9628-aa2400334a5b",
          "name": "Bassinet",
          "description": null,
          "short_code": 113,
          "volume": 10.0,
          "weight": 70.0
        },
        {
          "id": "24078cb6-272d-4aa8-9d3f-aa2400334a5b",
          "name": "Bathroom Cabinet",
          "description": null,
          "short_code": 114,
          "volume": 10.0,
          "weight": 70.0
        },
        {
          "id": "4a74476f-5fe2-478b-a1ad-aa2400334a5b",
          "name": "Bean Bag",
          "description": null,
          "short_code": 115,
          "volume": 7.0,
          "weight": 49.0
        },
        {
          "id": "2d4bc736-3cd2-459d-b0f1-aa2400334a5b",
          "name": "Bench",
          "description": null,
          "short_code": 116,
          "volume": 15.0,
          "weight": 105.0
        },
        {
          "id": "7f9c70ee-9900-450d-9544-aa2400334a5b",
          "name": "Bicycle",
          "description": null,
          "short_code": 117,
          "volume": 10.0,
          "weight": 70.0
        },
        {
          "id": "d99b57e8-14ab-4b32-b3b9-aa2400334a5b",
          "name": "Bike Rack",
          "description": null,
          "short_code": 118,
          "volume": 2.0,
          "weight": 14.0
        },
        {
          "id": "562e6ddf-8f44-4de0-9e05-aa2400334a5b",
          "name": "Blender",
          "description": "",
          "short_code": 119,
          "volume": 1.0,
          "weight": 7.0
        },
        {
          "id": "f14bfcf5-97f1-4366-87eb-aa2400334a5b",
          "name": "Bookcase",
          "description": "approx 3' x 3'",
          "short_code": 121,
          "volume": 10.0,
          "weight": 70.0
        },
        {
          "id": "d1322a55-57b8-4281-a43d-aa2400334a5b",
          "name": "Bookcase",
          "description": "approx 4' x 6'",
          "short_code": 120,
          "volume": 20.0,
          "weight": 140.0
        },
        {
          "id": "471c7be5-b7d7-4c0a-adff-aa2400334a5b",
          "name": "Bookcase",
          "description": "approx 4' x 8'",
          "short_code": 122,
          "volume": 40.0,
          "weight": 280.0
        },
        {
          "id": "f237ddba-8575-4803-9ce8-aa2400334a5b",
          "name": "Bread Maker",
          "description": "",
          "short_code": 124,
          "volume": 1.0,
          "weight": 7.0
        },
        {
          "id": "431235c1-d377-4bd3-a986-aa2400334a5b",
          "name": "Bread Maker",
          "description": "",
          "short_code": 123,
          "volume": 1.0,
          "weight": 7.0
        },
        {
          "id": "e7429ebb-5bca-4abf-b876-aa2400334a5b",
          "name": "Broom",
          "description": null,
          "short_code": 125,
          "volume": 4.0,
          "weight": 28.0
        },
        {
          "id": "f793e002-6a08-41b9-a80d-aa2400334a5b",
          "name": "Buffet",
          "description": null,
          "short_code": 126,
          "volume": 35.0,
          "weight": 245.0
        },
        {
          "id": "831cf270-7b70-4dd3-ada9-aa2400334a5b",
          "name": "Bunk Bed",
          "description": "",
          "short_code": 127,
          "volume": 110.0,
          "weight": 770.0
        },
        {
          "id": "7c33e261-9e12-430e-8822-aa2400334a5b",
          "name": "Butcher Block",
          "description": null,
          "short_code": 128,
          "volume": 15.0,
          "weight": 105.0
        },
        {
          "id": "944294b2-7da7-462e-a9d5-aa2400334a5b",
          "name": "Captains Bed",
          "description": "",
          "short_code": 129,
          "volume": 40.0,
          "weight": 280.0
        },
        {
          "id": "0de15904-28a5-45ea-b211-aa2400334a5b",
          "name": "Car Seat",
          "description": null,
          "short_code": 130,
          "volume": 5.0,
          "weight": 35.0
        },
        {
          "id": "a68024a5-6a3a-4de5-bd9f-aa2400334a5b",
          "name": "Card Table",
          "description": null,
          "short_code": 131,
          "volume": 8.0,
          "weight": 56.0
        },
        {
          "id": "73d2321e-83c8-4da6-a436-aa2400334a5b",
          "name": "Cat Litter Box",
          "description": null,
          "short_code": 132,
          "volume": 5.0,
          "weight": 35.0
        },
        {
          "id": "4e94d921-f46e-41a1-827f-aa2400334a5b",
          "name": "Cat Tree",
          "description": "Small",
          "short_code": 134,
          "volume": 7.0,
          "weight": 49.0
        },
        {
          "id": "5b416cb8-988a-4d95-969f-aa2400334a5b",
          "name": "Cat Tree",
          "description": "Medium",
          "short_code": 133,
          "volume": 15.0,
          "weight": 105.0
        },
        {
          "id": "8547e3b1-d82a-4634-a850-aa2400334a5b",
          "name": "Cat Tree",
          "description": "Large",
          "short_code": 135,
          "volume": 20.0,
          "weight": 140.0
        },
        {
          "id": "95356eaa-3b5a-4fb5-83cb-aa2400334a5b",
          "name": "CD Rack",
          "description": null,
          "short_code": 136,
          "volume": 7.0,
          "weight": 49.0
        },
        {
          "id": "1906c9dd-3671-4104-8caf-aa2400334a5b",
          "name": "Chaise Lounge",
          "description": null,
          "short_code": 137,
          "volume": 30.0,
          "weight": 210.0
        },
        {
          "id": "02d8b1f1-14b0-4f38-91f0-aa2400334a5b",
          "name": "Chandelier",
          "description": "approx 3' x 3' x 5'",
          "short_code": 138,
          "volume": 15.0,
          "weight": 105.0
        },
        {
          "id": "214b0ac6-f278-4710-a911-aa2400334a5b",
          "name": "Chandelier",
          "description": "approx 2' x 2' x 3'",
          "short_code": 139,
          "volume": 10.0,
          "weight": 70.0
        },
        {
          "id": "a4972ecf-62c3-48af-bf8c-aa2400334a5b",
          "name": "Chandelier",
          "description": "approx 1' cube",
          "short_code": 140,
          "volume": 5.0,
          "weight": 35.0
        },
        {
          "id": "5fc4404b-82de-4122-9a42-aa2400334a5b",
          "name": "Changing Table",
          "description": null,
          "short_code": 141,
          "volume": 15.0,
          "weight": 105.0
        },
        {
          "id": "4c7734b8-7181-4431-8b70-aa2400334a5b",
          "name": "Chest Freezer",
          "description": "",
          "short_code": 142,
          "volume": 26.0,
          "weight": 182.0
        },
        {
          "id": "fbba409b-a30e-4c27-9aba-aa2400334a5b",
          "name": "Children's Bed",
          "description": "",
          "short_code": 143,
          "volume": 20.0,
          "weight": 140.0
        },
        {
          "id": "4c26228e-46fa-484a-bc6a-aa2400334a5b",
          "name": "Children's Bicycle",
          "description": null,
          "short_code": 144,
          "volume": 7.0,
          "weight": 49.0
        },
        {
          "id": "ec93ca74-9378-40e8-8966-aa2400334a5b",
          "name": "Children's Chair",
          "description": null,
          "short_code": 145,
          "volume": 4.0,
          "weight": 28.0
        },
        {
          "id": "0deb6054-40ba-43fd-9555-aa2400334a5b",
          "name": "Children's Table",
          "description": null,
          "short_code": 146,
          "volume": 5.0,
          "weight": 35.0
        },
        {
          "id": "f19a920c-ab78-4fc9-86e5-aa2400334a5b",
          "name": "China Cabinet",
          "description": "approx 4' x 8' tall",
          "short_code": 147,
          "volume": 50.0,
          "weight": 350.0
        },
        {
          "id": "f8d3a1c8-06ff-4e60-a93b-aa2400334a5b",
          "name": "China Cabinet",
          "description": "approx 3' x 7' tall",
          "short_code": 148,
          "volume": 30.0,
          "weight": 210.0
        },
        {
          "id": "c5b73a6f-862a-4005-b1cd-aa2400334a5b",
          "name": "China Cabinet",
          "description": "approx 3.5' x 7' tall",
          "short_code": 149,
          "volume": 40.0,
          "weight": 280.0
        },
        {
          "id": "24327a7b-8dd1-4f41-9908-aa2400334a5b",
          "name": "Clarinet",
          "description": null,
          "short_code": 150,
          "volume": 3.0,
          "weight": 21.0
        }
      ]
    },
    "materials": {
      "tariffs": [
        {
          "id": "5aa72e33-be47-42ba-b59e-aeec01250bb5",
          "name": "Legacy Tariff",
          "is_enabled": true
        }
      ],
      "materials_by_tariff": {
        "5aa72e33-be47-42ba-b59e-aeec01250bb5": {
          "tariff_name": "Legacy Tariff",
          "materials": [
            {
              "id": "6b7388ee-afd4-4fe1-8a8b-aef50114f5c6",
              "name": "Single/Twin Mattress Bag",
              "description": "Purchase 40\" x 12\" x 90\" (Non-refundable once on truck)",
              "rate": 14.99,
              "unit": null,
              "category": null
            },
            {
              "id": "da0da7f3-84a8-4106-af69-aef501151802",
              "name": "Double Mattress Bag",
              "description": "Purchase 54\" x 12\" x 90\" (Non-refundable once on truck)",
              "rate": 14.99,
              "unit": null,
              "category": null
            },
            {
              "id": "a34a3376-33c9-490f-9110-aef5011540bf",
              "name": "Queen Mattress Bag",
              "description": "Purchase 61\" x 15\" x 94\" (Non-refundable once on truck)",
              "rate": 19.99,
              "unit": null,
              "category": null
            },
            {
              "id": "d552d712-d814-455c-bee2-aef50115580a",
              "name": "King Mattress Bag",
              "description": "Purchase 80\" x 11\" x 79\" (Non-refundable once on truck)",
              "rate": 24.99,
              "unit": null,
              "category": null
            },
            {
              "id": "952d4244-9532-43ee-91a3-aef50117955c",
              "name": "TV Protective Bag Rental up to 60\"",
              "description": "LCD Transport Bag-25mm of PE Foam Padding Ensures 360-Degree Impact Absorption",
              "rate": 19.99,
              "unit": null,
              "category": null
            },
            {
              "id": "64d11447-b040-45fe-8646-afa101155458",
              "name": "TV Box RENTAL - 60\" to 70\"",
              "description": null,
              "rate": 19.99,
              "unit": null,
              "category": null
            },
            {
              "id": "74114b8a-aab9-4e34-9fd6-aef501182714",
              "name": "Wardrobe Box on Truck Rental",
              "description": "Holds approximately 22-25 hangers each box",
              "rate": 9.99,
              "unit": null,
              "category": null
            },
            {
              "id": "db044c9a-3314-4180-a2b8-aef50118473b",
              "name": "Wardrobe Box Purchase",
              "description": "Holds approximately 22-25 hangers each box",
              "rate": 24.99,
              "unit": null,
              "category": null
            },
            {
              "id": "36bfd3ef-6183-4f16-a34d-b0220109f8a7",
              "name": "Last Minute Packing Kit -- refundable",
              "description": "5 small boxes, 5 medium boxes, 5 large boxes, 5 x-large boxes, 2 tapes, 1 small bundle of packing paper, 1 marker",
              "rate": 120.76,
              "unit": null,
              "category": null
            },
            {
              "id": "0abbde8c-f45d-4b20-92f3-aef50118788e",
              "name": "Small Bundle Packing Paper",
              "description": "10 pound bundle of packing paper",
              "rate": 19.99,
              "unit": null,
              "category": null
            },
            {
              "id": "03130f48-7c26-4e0f-a8a3-aef50118608f",
              "name": "Large Bundle Packing Paper",
              "description": "25 pound bundle of packing paper",
              "rate": 39.99,
              "unit": null,
              "category": null
            },
            {
              "id": "d638a061-d198-41af-9de0-aef501189232",
              "name": "Small Box",
              "description": "1.5 Cuft",
              "rate": 2.99,
              "unit": null,
              "category": null
            },
            {
              "id": "48d68424-0138-40f2-a880-aef50118ad74",
              "name": "Medium Box",
              "description": "3.0 Cuft",
              "rate": 3.99,
              "unit": null,
              "category": null
            },
            {
              "id": "782a059f-5a95-4dba-8ed7-aef50118c603",
              "name": "Large Box",
              "description": "4.5 Cuft",
              "rate": 4.99,
              "unit": null,
              "category": null
            },
            {
              "id": "1256750c-ea39-4feb-886e-aef50118ddc5",
              "name": "XL Box",
              "description": "6.0 cubic feet",
              "rate": 7.99,
              "unit": null,
              "category": null
            },
            {
              "id": "dc78a2d5-eee3-403b-b222-aef501191260",
              "name": "Bankers Box",
              "description": null,
              "rate": 3.99,
              "unit": null,
              "category": null
            },
            {
              "id": "75c4fe85-570d-4ac4-851a-aef5011935bb",
              "name": "Packing Peanuts/Loose Fill - SMALL",
              "description": "1.0 Cuft",
              "rate": 9.99,
              "unit": null,
              "category": null
            },
            {
              "id": "0f67df46-e581-46c8-a4ed-aef501199cf5",
              "name": "Packing Peanuts/Loose Fill - LARGE",
              "description": "4.0 Cuft",
              "rate": 24.99,
              "unit": null,
              "category": null
            },
            {
              "id": "28303950-c363-4b95-9609-aef50119b646",
              "name": "Tape",
              "description": "Only charged for packing jobs",
              "rate": 3.99,
              "unit": null,
              "category": null
            },
            {
              "id": "a86a5a8a-2112-4a08-a501-aef50119c9fe",
              "name": "Tape - Pack of 6",
              "description": "6 rolls of 2\" tape",
              "rate": 19.99,
              "unit": null,
              "category": null
            },
            {
              "id": "aeeb0611-70f4-449b-938a-aef5011d4238",
              "name": "Tape Gun/Dispenser",
              "description": "Holds 2\" tape",
              "rate": 14.99,
              "unit": null,
              "category": null
            },
            {
              "id": "30e0eb75-d4b1-47ef-9da5-aef50119df24",
              "name": "Marker",
              "description": "Black chisel tip marker. Only charged for packing jobs",
              "rate": 2.99,
              "unit": null,
              "category": null
            },
            {
              "id": "07d9c2e5-9db5-411d-8ad5-aef50119ec81",
              "name": "Utility Knife",
              "description": null,
              "rate": 2.99,
              "unit": null,
              "category": null
            },
            {
              "id": "c60220bb-7d93-4565-bfc5-aef5011a1830",
              "name": "Art/Mirror Box MEDIUM (46\")",
              "description": "Heavy Duty Double Walled Cardboard Box 46\" x 6.5\" x 31\"",
              "rate": 29.99,
              "unit": null,
              "category": null
            },
            {
              "id": "bb9c993a-335c-4885-93cf-aef5011a35dd",
              "name": "Art/Mirror Box LARGE (55\")",
              "description": "Heavy Duty Double Walled Cardboard Box 55\" x 6.5\" x 37\"",
              "rate": 34.99,
              "unit": null,
              "category": null
            },
            {
              "id": "cc3e487e-a502-49f2-a83b-aef5011a56d7",
              "name": "Art/Mirror Box XL (70\")",
              "description": "Heavy Duty Double Walled Cardboard Box 66\" x 6.5\" x 41\"",
              "rate": 44.99,
              "unit": null,
              "category": null
            },
            {
              "id": "141bd6ca-9d6d-43ac-8af3-aef5011ae120",
              "name": "Furniture Pad/Moving Blanket - RENTAL (10$ Deposit)",
              "description": "68\" x 85\" - Deposit fee deducted upon return",
              "rate": 30.0,
              "unit": null,
              "category": null
            },
            {
              "id": "5cf096bc-d58a-4487-a97d-aef5011b5d41",
              "name": "Furniture Pad/Moving Blanket - PURCHASE",
              "description": "68\" x 85\"",
              "rate": 30.0,
              "unit": null,
              "category": null
            },
            {
              "id": "0ab060cf-b344-4e55-a8bc-aef5011b77d9",
              "name": "Shrink Wrap",
              "description": "Shrink wrapping for furniture protection",
              "rate": 15.99,
              "unit": null,
              "category": null
            },
            {
              "id": "5bfc1f38-c76a-4ab5-82ee-aef5011b84a4",
              "name": "Dish Pack",
              "description": "Protects against chipping and breaking. Holds 6 plates, 6 saucers, 6 bowls, 6 salad plates. Contains 24 pouches and 1 cell divider. Fits into our Small Box (Sold Separately)",
              "rate": 19.99,
              "unit": null,
              "category": null
            },
            {
              "id": "1f77c436-11b5-4af6-9ccd-aef5011b9cf5",
              "name": "Glass Pack",
              "description": "Protects against chipping and breaking. Holds 12-24 glasses. Contains 12 pouches and 1 cell divider. Fits into our Small Box (Sold Separately)",
              "rate": 18.99,
              "unit": null,
              "category": null
            },
            {
              "id": "cdbd64c3-1c20-45dc-9379-aef5011bae70",
              "name": "Moving Labels",
              "description": "Assorted moving labels of different colours. 140 Labels Kitchen, Living Room, Storage, Bedroom, Dining Room etc.",
              "rate": 19.99,
              "unit": null,
              "category": null
            },
            {
              "id": "4f5b9657-4ecf-4629-a5c1-aef5011bc659",
              "name": "GLASS Labels",
              "description": "Pack of 5. Orange in colour",
              "rate": 1.99,
              "unit": null,
              "category": null
            },
            {
              "id": "d6bfa29a-84b9-4c52-826b-aef5011bddb3",
              "name": "FRAGILE Labels",
              "description": "Pack of 5. Orange in colour",
              "rate": 1.99,
              "unit": null,
              "category": null
            },
            {
              "id": "5e3a53ba-9476-4463-b861-aef5011bff18",
              "name": "THIS SIDE UP Labels",
              "description": "Pack of 5. Orange in colour",
              "rate": 1.99,
              "unit": null,
              "category": null
            },
            {
              "id": "476196ce-4acd-459e-ae3d-aef5011c1571",
              "name": "DO NOT STACK Labels",
              "description": "Pack of 5. Orange in colour",
              "rate": 1.99,
              "unit": null,
              "category": null
            },
            {
              "id": "c8530e94-5e72-445a-9954-aef5011c4e89",
              "name": "Bubble Wrap (48\"x50\")",
              "description": "3 1/6\" x 48\" x 50 ft",
              "rate": 39.99,
              "unit": null,
              "category": null
            },
            {
              "id": "e5105cdd-05bf-4a78-a78e-aef5011c695d",
              "name": "Bubble Wrap (12\"x100\")",
              "description": "3 1/6\" x 12\" x 100 ft",
              "rate": 25.99,
              "unit": null,
              "category": null
            },
            {
              "id": "9e81940e-ba35-494d-8f70-aef5011c8826",
              "name": "Bubble Wrap (24\"x100\")",
              "description": "3 1/6\" x 24\" x 100 ft",
              "rate": 45.99,
              "unit": null,
              "category": null
            },
            {
              "id": "9f9a506f-cfc4-4121-aebd-aef5011c98ad",
              "name": "Sofa/Couch Cover",
              "description": "45\" x 152\"",
              "rate": 14.99,
              "unit": null,
              "category": null
            },
            {
              "id": "b9de7195-fc55-4937-bfec-aef5011cbad1",
              "name": "Chair Cover",
              "description": "Pack of 2. 46\" x 76\"",
              "rate": 14.99,
              "unit": null,
              "category": null
            },
            {
              "id": "c6ea65ec-4005-4b3e-8d3b-aef5011cf82c",
              "name": "Full Protective TV Kit 46\"",
              "description": "TV kit protects your screen from any possible damage. Offers extra protection for the flat screen or LCD due to its high-quality cardboard and double walls.",
              "rate": 39.99,
              "unit": null,
              "category": null
            },
            {
              "id": "b462be30-0ad6-40c6-b0f5-aef5011d1285",
              "name": "Full Protective TV Kit 55\"",
              "description": "TV kit protects your screen from any possible damage. Offers extra protection for the flat screen or LCD due to its high-quality cardboard and double walls.",
              "rate": 49.99,
              "unit": null,
              "category": null
            },
            {
              "id": "0bc3ed37-288b-45bc-9db3-aef5011d2fbe",
              "name": "Full Protective TV Kit 70\"",
              "description": "TV kit protects your screen from any possible damage. Offers extra protection for the flat screen or LCD due to its high-quality cardboard and double walls.",
              "rate": 69.99,
              "unit": null,
              "category": null
            },
            {
              "id": "43fae6a6-2b7b-41f9-9ee1-aef5011d7a4f",
              "name": "TV Box 46\"",
              "description": "Up to 46\". 38\" - 46\" TV's. heavy duty, double walled cardboard tv box for purchase 46\" x 6.5\" x 31\" (tv protection cushion sold separately)",
              "rate": 19.99,
              "unit": null,
              "category": null
            },
            {
              "id": "63999240-4155-4b3a-923d-aef5011d9963",
              "name": "TV Box 55\"",
              "description": "Up to 55\". 47\"-55\" TV's. heavy duty, double walled cardboard tv box for purchase 55\" x 6.5\" x 37\" (tv protection cushion sold separately)",
              "rate": 29.99,
              "unit": null,
              "category": null
            },
            {
              "id": "e45f7efe-23b4-47f4-bff9-aef5011de85d",
              "name": "TV Box 70\"",
              "description": "Up to 70\". Heavy duty, double walled cardboard tv box for purchase 66\" x 6.5\" x 41\" (tv protection cushion sold separately)",
              "rate": 39.99,
              "unit": null,
              "category": null
            },
            {
              "id": "7107555f-91f3-46cc-b0bd-aef5011e299a",
              "name": "TV Protection Cushion 46\"",
              "description": "Up to 46\". Ideal for keeping your LCD or flat screen safe during the move. Cushion wrapping for televisions, art, mirrors etc. (TV Box sold separately)",
              "rate": 24.99,
              "unit": null,
              "category": null
            },
            {
              "id": "2a3545ab-16c8-4cbb-89f8-aef5012e895e",
              "name": "TV Protection Cushion 55\"",
              "description": "Up to 55\". Ideal for keeping your LCD or flat screen safe during the move. Cushion wrapping for televisions, art, mirrors etc. (TV Box sold separately)",
              "rate": 29.99,
              "unit": null,
              "category": null
            },
            {
              "id": "8d7194be-24e1-4b35-94b1-aef5012eaa3a",
              "name": "TV Protection Cushion 70\"",
              "description": "Up to 70\". Heavy duty, double walled cardboard tv box for purchase 66\" x 6.5\" x 41\" (tv protection cushion sold separately)",
              "rate": 34.99,
              "unit": null,
              "category": null
            },
            {
              "id": "5985644a-79eb-4b2c-bdc7-aef5012f139d",
              "name": "Studio/Loft Packing Kit",
              "description": "Savings up to $20. 10 small boxes, 7 medium boxes, 3 large boxes, 2 rolls of tape, 10 lbs packing paper (small bundle), Black Marker, One any size Mattress Bag",
              "rate": 109.99,
              "unit": null,
              "category": null
            },
            {
              "id": "f30cdbb1-9b76-4541-8faf-b20c01575eed",
              "name": "Last Minute Kitchen Only Packing Kit -- refundable",
              "description": "15 small boxes/15 medium boxes/15 large boxes/2 rolls tape/2 x 25 lbs packing paper/10 lbs packing paper/1 black marker/Bubble Wrap 12\"x100\"/2 dish packs/2 small boxes/2 glass packs/2 small boxes",
              "rate": null,
              "unit": null,
              "category": null
            },
            {
              "id": "e7e20749-2266-45f0-a5fb-aef5012f31cc",
              "name": "1 Bedroom Packing Kit",
              "description": "Savings up to $22. 12 small boxes, 10 medium boxes, 8 large boxes, 2 rolls of tape, 10 lbs packing paper (small bundle), 1 black marker, 1 any size Mattress Bag",
              "rate": 149.99,
              "unit": null,
              "category": null
            },
            {
              "id": "b093a5dd-4260-4436-b64b-aef501308303",
              "name": "2 Bedroom Packing Kit",
              "description": "Savings up to $49. 20 small boxes, 15 medium boxes, 10 large boxes, 4 rolls of tape, 25 lbs packing paper (1 large bundle), 1 black marker, 2 any size Mattress Bag",
              "rate": 229.99,
              "unit": null,
              "category": null
            },
            {
              "id": "1d0ab533-3f41-4c1e-8b52-aef50130ba2e",
              "name": "3 Bedroom Packing Kit",
              "description": "Savings up to $73. 40 small boxes, 30 medium boxes, 20 large boxes, 8 rolls of tape, 50 lbs packing paper (2 large bundles), 2 black markers, 3 any size Mattress Bag",
              "rate": 454.99,
              "unit": null,
              "category": null
            },
            {
              "id": "421fa553-83b4-4275-bc0b-aef50130f2b8",
              "name": "4 Bedroom Packing Kit",
              "description": "Savings up to $132. 55 small boxes, 45 medium boxes, 35 large boxes, 12 rolls of tape, 75 lbs packing paper (3 large bundles), 3 black markers, 4 any size Mattress Bags",
              "rate": 654.99,
              "unit": null,
              "category": null
            },
            {
              "id": "1a40b98b-a28d-48f7-97a4-aef501310828",
              "name": "Ratchet Strap",
              "description": "For purchase only",
              "rate": 19.99,
              "unit": null,
              "category": null
            },
            {
              "id": "d07f6605-3fb4-48a6-b379-b088010bc63f",
              "name": "Bungee Cord",
              "description": "For purchase only",
              "rate": 9.99,
              "unit": null,
              "category": null
            },
            {
              "id": "214329de-4fcb-46c0-9b95-af550157a664",
              "name": "Rental Bin (1 week)",
              "description": null,
              "rate": 1.99,
              "unit": null,
              "category": null
            }
          ]
        }
      }
    },
    "service_types": {
      "total_service_types": 25,
      "service_types": [
        {
          "id": 1,
          "name": "Moving",
          "scaling_factor_percentage": 100,
          "has_activity_loading": false,
          "has_activity_finished_loading": false,
          "has_activity_unloading": false,
          "order": 1
        },
        {
          "id": 3,
          "name": "Packing",
          "scaling_factor_percentage": 100,
          "has_activity_loading": false,
          "has_activity_finished_loading": false,
          "has_activity_unloading": false,
          "order": 2
        },
        {
          "id": 4,
          "name": "Moving And Packing",
          "scaling_factor_percentage": 100,
          "has_activity_loading": false,
          "has_activity_finished_loading": false,
          "has_activity_unloading": false,
          "order": 3
        },
        {
          "id": 5,
          "name": "Load Only",
          "scaling_factor_percentage": 65,
          "has_activity_loading": false,
          "has_activity_finished_loading": false,
          "has_activity_unloading": false,
          "order": 4
        },
        {
          "id": 6,
          "name": "Unload Only",
          "scaling_factor_percentage": 35,
          "has_activity_loading": false,
          "has_activity_finished_loading": false,
          "has_activity_unloading": false,
          "order": 5
        },
        {
          "id": 112,
          "name": "Load Only and Packing ",
          "scaling_factor_percentage": 100,
          "has_activity_loading": true,
          "has_activity_finished_loading": true,
          "has_activity_unloading": true,
          "order": 6
        },
        {
          "id": 7,
          "name": "Commercial",
          "scaling_factor_percentage": 100,
          "has_activity_loading": false,
          "has_activity_finished_loading": false,
          "has_activity_unloading": false,
          "order": 7
        },
        {
          "id": 8,
          "name": "Storage In Bound",
          "scaling_factor_percentage": 80,
          "has_activity_loading": false,
          "has_activity_finished_loading": false,
          "has_activity_unloading": false,
          "order": 8
        },
        {
          "id": 9,
          "name": "Storage Out Bound",
          "scaling_factor_percentage": 80,
          "has_activity_loading": false,
          "has_activity_finished_loading": false,
          "has_activity_unloading": false,
          "order": 9
        },
        {
          "id": 111,
          "name": "Driving",
          "scaling_factor_percentage": 100,
          "has_activity_loading": false,
          "has_activity_finished_loading": false,
          "has_activity_unloading": false,
          "order": 10
        },
        {
          "id": 101,
          "name": "Storage Inbound and Packing",
          "scaling_factor_percentage": 100,
          "has_activity_loading": false,
          "has_activity_finished_loading": false,
          "has_activity_unloading": false,
          "order": 11
        },
        {
          "id": 12,
          "name": "Labor Only",
          "scaling_factor_percentage": 100,
          "has_activity_loading": false,
          "has_activity_finished_loading": false,
          "has_activity_unloading": false,
          "order": 13
        },
        {
          "id": 11,
          "name": "Junk Removal",
          "scaling_factor_percentage": 100,
          "has_activity_loading": false,
          "has_activity_finished_loading": false,
          "has_activity_unloading": false,
          "order": 14
        },
        {
          "id": 102,
          "name": "Cleaning",
          "scaling_factor_percentage": 100,
          "has_activity_loading": false,
          "has_activity_finished_loading": false,
          "has_activity_unloading": false,
          "order": 15
        },
        {
          "id": 103,
          "name": "Unpacking ",
          "scaling_factor_percentage": 100,
          "has_activity_loading": false,
          "has_activity_finished_loading": false,
          "has_activity_unloading": false,
          "order": 16
        },
        {
          "id": 104,
          "name": "Material Pickup at Office",
          "scaling_factor_percentage": 100,
          "has_activity_loading": false,
          "has_activity_finished_loading": false,
          "has_activity_unloading": false,
          "order": 17
        },
        {
          "id": 105,
          "name": "Box Delivery",
          "scaling_factor_percentage": 100,
          "has_activity_loading": false,
          "has_activity_finished_loading": false,
          "has_activity_unloading": false,
          "order": 18
        },
        {
          "id": 106,
          "name": "Ferry Load Only",
          "scaling_factor_percentage": 100,
          "has_activity_loading": false,
          "has_activity_finished_loading": false,
          "has_activity_unloading": false,
          "order": 19
        },
        {
          "id": 107,
          "name": "Ferry Unload Only",
          "scaling_factor_percentage": 100,
          "has_activity_loading": false,
          "has_activity_finished_loading": false,
          "has_activity_unloading": false,
          "order": 20
        },
        {
          "id": 113,
          "name": "Ferry Same Day Moving",
          "scaling_factor_percentage": 100,
          "has_activity_loading": false,
          "has_activity_finished_loading": false,
          "has_activity_unloading": false,
          "order": 21
        },
        {
          "id": 109,
          "name": "Bin Rental Drop Off",
          "scaling_factor_percentage": 100,
          "has_activity_loading": true,
          "has_activity_finished_loading": true,
          "has_activity_unloading": true,
          "order": 22
        },
        {
          "id": 108,
          "name": "Bin Rental Pick Up",
          "scaling_factor_percentage": 100,
          "has_activity_loading": true,
          "has_activity_finished_loading": true,
          "has_activity_unloading": true,
          "order": 23
        },
        {
          "id": 110,
          "name": "Material Pickup at the Office ",
          "scaling_factor_percentage": 100,
          "has_activity_loading": false,
          "has_activity_finished_loading": false,
          "has_activity_unloading": false,
          "order": 24
        },
        {
          "id": 114,
          "name": " Labour and Packing Only",
          "scaling_factor_percentage": 100,
          "has_activity_loading": false,
          "has_activity_finished_loading": false,
          "has_activity_unloading": false,
          "order": 25
        },
        {
          "id": 116,
          "name": " LONG DISTANCE: RAPID TRANSITION",
          "scaling_factor_percentage": 100,
          "has_activity_loading": false,
          "has_activity_finished_loading": false,
          "has_activity_unloading": false,
          "order": 27
        }
      ]
    },
    "move_sizes": {
      "total_move_sizes": 38,
      "move_sizes": [
        {
          "id": "ab8da493-0b67-4294-9e54-b2020139c46b",
          "name": "1 HR MIN/2-4 PM ONLY/AFTER JOBS UNDER 900 SQ FT ONLY ",
          "description": "1 HR MIN/2-4 PM/AFTER JOBS UNDER 900 SQ FT ONLY ",
          "volume": 0,
          "weight": 0.0
        },
        {
          "id": "4f5143d4-c6b7-44db-8065-b122012ad08e",
          "name": "Single Item Only (2hr Min Job) ",
          "description": " 1 item only ",
          "volume": 100,
          "weight": 700.0
        },
        {
          "id": "8070180e-10c1-4fe8-a5ea-b162013a77ff",
          "name": "Material Pickup at the Office",
          "description": "Material Pickup at the Office",
          "volume": 0,
          "weight": 0.0
        },
        {
          "id": "4f6aaec0-ce45-4242-bc51-aa2400334a00",
          "name": "Room Only or 5 furniture Items or Less (2hr Min Job) ",
          "description": "A single Room from a larger house or less than 5 items ",
          "volume": 75,
          "weight": 525.0
        },
        {
          "id": "1db77f52-c4fb-4586-2a3c-08d8453d4edd",
          "name": "Office (Small)",
          "description": "small office or partial office space 800 SQFT or less",
          "volume": 450,
          "weight": 3150.0
        },
        {
          "id": "f80711d4-07c9-4733-ab8c-08d859b1ad6e",
          "name": "Office (Medium)",
          "description": "medium sized office ",
          "volume": 1200,
          "weight": 8400.0
        },
        {
          "id": "12823eb0-1fd0-4576-7624-08d6eb65a26e",
          "name": "Office (Large)",
          "description": "4000 SQFT",
          "volume": 3816,
          "weight": 26712.0
        },
        {
          "id": "92bdbd84-3d65-4409-5383-08d8d440c577",
          "name": "Box Delivery",
          "description": "Not a move, delivery of supplies only ",
          "volume": 0,
          "weight": 0.0
        },
        {
          "id": "d1b5c58e-ec89-4692-8839-b074010cb350",
          "name": "Rental Bins Pick Up",
          "description": "Rental Bins Pick Up",
          "volume": 1,
          "weight": 7.0
        },
        {
          "id": "b9a2186c-89c9-4af1-a866-b074010cc972",
          "name": "Rental Bins Drop Off",
          "description": "Rental Bins Drop Off",
          "volume": 1,
          "weight": 7.0
        },
        {
          "id": "b5375878-e918-4756-cca1-08d7e6aa5dab",
          "name": "Commercial ",
          "description": "4000 SQFT",
          "volume": 3816,
          "weight": 26712.0
        },
        {
          "id": "bd88361e-cd00-4e9f-7625-08d6eb65a26e",
          "name": "Warehouse",
          "description": "1000-5000 SQFT",
          "volume": 3816,
          "weight": 26712.0
        },
        {
          "id": "79f04afd-99b4-4e2d-9de2-aa2400334a00",
          "name": "Studio Apartment",
          "description": "Under 600 SQFT",
          "volume": 288,
          "weight": 2016.0
        },
        {
          "id": "fcf027f4-1e18-43bc-a7fe-aa2400334a00",
          "name": "1 Bedroom Apartment",
          "description": "600 - 800 SQFT",
          "volume": 432,
          "weight": 3024.0
        },
        {
          "id": "b50e5114-012d-40cd-a6cb-aa2400334a00",
          "name": "2 Bedroom Apartment",
          "description": "1200 - 1400 SQFT",
          "volume": 864,
          "weight": 6048.0
        },
        {
          "id": "b42f0073-3490-479b-9648-aa2400334a00",
          "name": "3 Bedroom Apartment",
          "description": "1800 - 2000 SQFT",
          "volume": 1296,
          "weight": 9072.0
        },
        {
          "id": "baf1a47f-4b6a-4b83-58f6-08d9adc2348f",
          "name": "2 Bedroom Townhouse",
          "description": "1000-1400 SQFT",
          "volume": 864,
          "weight": 6048.0
        },
        {
          "id": "83109334-0b99-4022-37ac-08d9adc29a6d",
          "name": "3 Bedroom Townhouse",
          "description": "1200-1500 SQFT",
          "volume": 874,
          "weight": 6118.0
        },
        {
          "id": "cde937c2-78eb-4538-58f7-08d9adc2348f",
          "name": "4 Bedroom Townhouse",
          "description": "1200-1600 SQFT",
          "volume": 900,
          "weight": 6300.0
        },
        {
          "id": "5e8e48a5-67c6-47fe-bf26-aa2400334a00",
          "name": "2 Bedroom House",
          "description": "1400 - 1600 SQFT",
          "volume": 1008,
          "weight": 7056.0
        },
        {
          "id": "96406319-a55a-4883-8b10-aa2400334a00",
          "name": "2 Bedroom House (Large)",
          "description": "1600 - 1800 SQFT",
          "volume": 1152,
          "weight": 8064.0
        },
        {
          "id": "aced88b8-75ea-4b01-b872-aa2400334a00",
          "name": "3 Bedroom House",
          "description": "2000 - 2200 SQFT",
          "volume": 1440,
          "weight": 10080.0
        },
        {
          "id": "96d14ca3-363b-410a-99ae-aa2400334a00",
          "name": "3 Bedroom House (Large)",
          "description": "2200 - 2400 SQFT",
          "volume": 1584,
          "weight": 11088.0
        },
        {
          "id": "677fb489-2684-48d0-b4e9-aa2400334a00",
          "name": "4 Bedroom House",
          "description": "2600 - 2800 SQFT",
          "volume": 1872,
          "weight": 13104.0
        },
        {
          "id": "c94c181e-cc03-468e-a25b-aa2400334a00",
          "name": "4 Bedroom House (Large)",
          "description": "2800 - 3000 SQFT",
          "volume": 2016,
          "weight": 14112.0
        },
        {
          "id": "28cc2d7d-4685-4587-9ce9-aa2400334a00",
          "name": "5 Bedroom House",
          "description": "3300 - 3600 SQFT",
          "volume": 3168,
          "weight": 22176.0
        },
        {
          "id": "4c6f0bbf-0743-4f0c-a9b4-aa2400334a00",
          "name": "5 Bedroom House (Large)",
          "description": "3600 - 4000 SQFT",
          "volume": 3816,
          "weight": 26712.0
        },
        {
          "id": "9130a7da-fdc3-4617-bed3-aa2400334a00",
          "name": "5 x 10 Storage Unit",
          "description": "",
          "volume": 400,
          "weight": 2800.0
        },
        {
          "id": "f0a15157-de7a-4125-8173-aa2400334a00",
          "name": "5 x 15 Storage Unit",
          "description": "",
          "volume": 600,
          "weight": 4200.0
        },
        {
          "id": "4dbe75eb-dc96-4e96-9c50-aa2400334a00",
          "name": "10 x 10 Storage Unit",
          "description": "",
          "volume": 800,
          "weight": 5600.0
        },
        {
          "id": "ff364a80-51ba-4209-ab22-aa2400334a00",
          "name": "10 x 15 Storage Unit",
          "description": "",
          "volume": 1200,
          "weight": 8400.0
        },
        {
          "id": "1eb3b0b6-7961-449a-9838-aa2400334a00",
          "name": "10 x 20 Storage Unit",
          "description": "",
          "volume": 1600,
          "weight": 11200.0
        },
        {
          "id": "65d08b3f-b71f-4014-f9f6-08d75ee7be88",
          "name": "10x25 Storage Unit ",
          "description": "10 x 25 foot storage unit ",
          "volume": 1800,
          "weight": 12600.0
        },
        {
          "id": "c8441667-07bf-4071-77a3-08d7aa64c92d",
          "name": "10x30 Storage Unit",
          "description": "10x30 storage unit ",
          "volume": 3000,
          "weight": 21000.0
        },
        {
          "id": "12eeb0eb-4791-4025-816a-b2f0014016f9",
          "name": "Medium",
          "description": "Medium",
          "volume": null,
          "weight": 0.0
        },
        {
          "id": "38d79c59-02eb-462b-99c7-b32c00f95772",
          "name": "fcf027f4-1e18-43bc-a7fe-aa2400334a00",
          "description": "fcf027f4-1e18-43bc-a7fe-aa2400334a00",
          "volume": null,
          "weight": 0.0
        },
        {
          "id": "3b2e0c2e-23d3-439e-adda-b32c00fa1c3a",
          "name": "1 Bedroom",
          "description": "1 Bedroom",
          "volume": null,
          "weight": 0.0
        },
        {
          "id": "6111c815-4fdb-4731-ba9c-b32c00fd651d",
          "name": "4+ Bedrooms",
          "description": "4+ Bedrooms",
          "volume": null,
          "weight": 0.0
        }
      ]
    },
    "room_types": {
      "total_room_types": 10,
      "room_types": [
        {
          "id": "f2b91d9a-d6af-4cde-b3a4-aa2400334a5b",
          "name": "Bedroom",
          "description": null,
          "order": null
        },
        {
          "id": "7616b9e7-7392-4a54-840f-aba60113ca6f",
          "name": "Commercial Move",
          "description": null,
          "order": null
        },
        {
          "id": "05a34397-27dd-46e2-9b1e-aa2400334a5b",
          "name": "Dining Room",
          "description": null,
          "order": null
        },
        {
          "id": "b913d2c7-429e-4463-abde-ab4c00fe57ed",
          "name": "Garage",
          "description": null,
          "order": null
        },
        {
          "id": "329e1da0-22d2-42f1-954c-aa2400334a5b",
          "name": "Kids Room",
          "description": null,
          "order": null
        },
        {
          "id": "95fc8089-2ea2-4192-a100-aa2400334a5b",
          "name": "Kitchen",
          "description": null,
          "order": null
        },
        {
          "id": "d74e4d6f-4aac-4bbe-9445-aa2400334a5b",
          "name": "Living Room",
          "description": null,
          "order": null
        },
        {
          "id": "50e97a96-cd3c-455d-9da6-aa2400334a5b",
          "name": "Office",
          "description": null,
          "order": null
        },
        {
          "id": "482dde03-f5b4-4712-81b7-aa2400334a5b",
          "name": "Other",
          "description": null,
          "order": null
        },
        {
          "id": "491fdb7d-c77a-43cd-97b0-aa2400334a5b",
          "name": "Outdoor",
          "description": null,
          "order": null
        }
      ]
    },
    "referral_sources": {
      "total_referral_sources": 50,
      "referral_sources": [
        {
          "id": "e817039f-647f-4053-915e-b32d016b815a",
          "name": " BOIS Google Local Services Ads",
          "is_lead_provider": false,
          "is_public": true
        },
        {
          "id": "04f4e42d-f091-4914-aef6-b30e0159cbec",
          "name": "(202 | ASK REFERRAL",
          "is_lead_provider": false,
          "is_public": true
        },
        {
          "id": "0370a6ee-33ba-4d77-8ade-b313014989cc",
          "name": "(404 | ASK REFERRAL",
          "is_lead_provider": false,
          "is_public": true
        },
        {
          "id": "3387d37a-ef78-45c2-bdbc-b30e0139c18c",
          "name": "(416 | ASK REFERRAL",
          "is_lead_provider": false,
          "is_public": true
        },
        {
          "id": "d5529bc7-6252-4b72-96b5-b30e013ce8cd",
          "name": "(519 | ASK REFERRAL",
          "is_lead_provider": false,
          "is_public": true
        },
        {
          "id": "4b46de39-e2bf-4a84-9358-b311003c4557",
          "name": "(571 | ASK REFERRAL",
          "is_lead_provider": false,
          "is_public": true
        },
        {
          "id": "791b953e-5c58-450f-bc8a-b30e013cc72f",
          "name": "(604 | ASK REFERRAL",
          "is_lead_provider": false,
          "is_public": true
        },
        {
          "id": "9b17d150-8b70-4aac-b0bc-b32100bf90a9",
          "name": "(613 | ASK REFERRAL",
          "is_lead_provider": false,
          "is_public": true
        },
        {
          "id": "25af19ac-0d5c-4f8d-83d8-b32500dbb2c3",
          "name": "(647 | ASK REFERRAL",
          "is_lead_provider": false,
          "is_public": true
        },
        {
          "id": "a641e2f5-28c6-4303-af2d-b32001869a34",
          "name": "(778 | ASK REFERRAL",
          "is_lead_provider": false,
          "is_public": true
        },
        {
          "id": "8caa0e81-b3ce-4370-acc9-b317004f43b3",
          "name": "(780 | ASK REFERRAL",
          "is_lead_provider": false,
          "is_public": true
        },
        {
          "id": "ebd8dc38-7640-4488-bd7b-b30e013aa599",
          "name": "(813 | ASK REFERRAL",
          "is_lead_provider": false,
          "is_public": true
        },
        {
          "id": "7462b476-6d18-4f5b-8eac-b313013e9ebc",
          "name": "(832 | ASK REFERRAL",
          "is_lead_provider": false,
          "is_public": true
        },
        {
          "id": "ad59d811-5a6c-47a2-b7aa-b31900dea820",
          "name": "(902 | ASK REFERRAL",
          "is_lead_provider": false,
          "is_public": true
        },
        {
          "id": "fc8085ff-24f9-4034-b6f9-b31700146a4e",
          "name": "(905 | ASK REFERRAL",
          "is_lead_provider": false,
          "is_public": true
        },
        {
          "id": "2728b067-bc42-4c53-89bf-b324010704bd",
          "name": "ABBO - Google Local Services Ads",
          "is_lead_provider": false,
          "is_public": true
        },
        {
          "id": "636a1e2e-feb5-4e8d-83e8-b21000eae60c",
          "name": "ABBO | ASK FOR REFERRAL",
          "is_lead_provider": false,
          "is_public": true
        },
        {
          "id": "b9e22209-7c4e-4267-9017-b1e2015eaba5",
          "name": "ABBO Google | Organic",
          "is_lead_provider": false,
          "is_public": true
        },
        {
          "id": "2f5ba5ab-482d-4d71-9453-b30601752d53",
          "name": "ABBO PPC",
          "is_lead_provider": false,
          "is_public": true
        },
        {
          "id": "eff817af-dc42-45f2-9d9d-b2f9013f5d48",
          "name": "Agent: +15713786477",
          "is_lead_provider": false,
          "is_public": true
        },
        {
          "id": "82f22f08-5cac-4e78-acb6-b2f901427232",
          "name": "Agent: +16139079115",
          "is_lead_provider": false,
          "is_public": true
        },
        {
          "id": "f7eb21a3-e4c0-4a31-9fe0-b2f9014c44e2",
          "name": "Agent: +18772453254",
          "is_lead_provider": false,
          "is_public": true
        },
        {
          "id": "1a7aac92-800d-4303-a472-b2f301583b44",
          "name": "Aggressive Branch Test",
          "is_lead_provider": false,
          "is_public": true
        },
        {
          "id": "4f4c841c-7880-4e74-ac79-b2ea00f0f164",
          "name": "AI -- LIST EXACT LOCATION & PLATFORM IN NOTES",
          "is_lead_provider": false,
          "is_public": true
        },
        {
          "id": "17d32ef7-0272-45d9-9aca-b213011c6ee5",
          "name": "AJAX | ASK FOR REFERRAL",
          "is_lead_provider": false,
          "is_public": true
        },
        {
          "id": "ff967c0b-4343-43f2-b620-b30e013acd99",
          "name": "AJAX | ASK REFERRAL",
          "is_lead_provider": false,
          "is_public": true
        },
        {
          "id": "dfeb9e3a-69b6-4169-9398-b0440072b178",
          "name": "AJAX ASK FOR REFERRAL | Direct",
          "is_lead_provider": false,
          "is_public": true
        },
        {
          "id": "fcb48d0f-f56a-4e51-bacc-b1d1014df78a",
          "name": "AJAX ASK FOR REFERRAL | Referral",
          "is_lead_provider": false,
          "is_public": true
        },
        {
          "id": "95a8ec85-0132-40ab-a93c-b18700cf50d7",
          "name": "AJAX Bing | Organic",
          "is_lead_provider": false,
          "is_public": true
        },
        {
          "id": "39d58369-cf52-475b-9640-afef01461902",
          "name": "AJAX Call Ext / Call Only Ads",
          "is_lead_provider": false,
          "is_public": true
        },
        {
          "id": "dad54523-1b24-4a98-8136-b10601259685",
          "name": "AJAX Facebook Ads",
          "is_lead_provider": false,
          "is_public": true
        },
        {
          "id": "00b3cab3-794d-4c89-a777-b114011f3d52",
          "name": "AJAX GMB | Organic",
          "is_lead_provider": false,
          "is_public": true
        },
        {
          "id": "25465a0a-f2df-4f4d-ada6-b082013f7356",
          "name": "AJAX Google | Organic",
          "is_lead_provider": false,
          "is_public": true
        },
        {
          "id": "839cb4b0-58b8-4d30-a97d-b10d012dc1d0",
          "name": "AJAX Google Local Service Ads",
          "is_lead_provider": false,
          "is_public": true
        },
        {
          "id": "0b6554bf-02bd-4a2d-bec0-b0d70115bf08",
          "name": "AJAX Homestars",
          "is_lead_provider": false,
          "is_public": true
        },
        {
          "id": "d7e4ab54-d80b-482f-9063-b153011ac19c",
          "name": "AJAX MoveBuddy ",
          "is_lead_provider": false,
          "is_public": true
        },
        {
          "id": "ae19f6c4-4c64-4f52-b105-b0420150f197",
          "name": "AJAX MovingWaldo",
          "is_lead_provider": false,
          "is_public": true
        },
        {
          "id": "a9d86b30-c462-460e-b06a-b042014e9f2b",
          "name": "AJAX Postcard",
          "is_lead_provider": false,
          "is_public": true
        },
        {
          "id": "38cb1da9-f8ff-4c19-9019-b03e01455a10",
          "name": "AJAX PPC",
          "is_lead_provider": false,
          "is_public": true
        },
        {
          "id": "8eac906a-8f78-4f5d-87d9-b04200ce247f",
          "name": "AJAX Referral",
          "is_lead_provider": false,
          "is_public": true
        },
        {
          "id": "628a5e43-ab55-49fb-88d1-b042014dca50",
          "name": "AJAX Repeat Customer",
          "is_lead_provider": false,
          "is_public": true
        },
        {
          "id": "46607f5a-7ab9-48f1-b684-afef014626c6",
          "name": "AJAX Saw Our Truck",
          "is_lead_provider": false,
          "is_public": true
        },
        {
          "id": "328ae0b5-6427-4262-8891-b0420155cc2e",
          "name": "AJAX Yelp Ads",
          "is_lead_provider": false,
          "is_public": true
        },
        {
          "id": "dc3e75c0-510d-4d6e-95f1-b313013399ac",
          "name": "ALAM | ASK FOR REFERRAL",
          "is_lead_provider": false,
          "is_public": true
        },
        {
          "id": "018ec6ed-b6b2-4fd3-bd7f-b3140108f2a1",
          "name": "ALBU | ASK FOR REFERRAL",
          "is_lead_provider": false,
          "is_public": true
        },
        {
          "id": "28197658-9c25-4aeb-a89a-b3010117efba",
          "name": "ALEX | ASK FOR REFERRAL",
          "is_lead_provider": false,
          "is_public": true
        },
        {
          "id": "1e6be137-14c3-457d-be4e-b30e013aad1e",
          "name": "ALEX | ASK REFERRAL",
          "is_lead_provider": false,
          "is_public": true
        },
        {
          "id": "7d6bf48f-b4b4-4b10-8cca-b32c00be8008",
          "name": "ALEX BING PPC",
          "is_lead_provider": false,
          "is_public": true
        },
        {
          "id": "9137bc4c-ab5a-44e5-ab26-b2d501425a5e",
          "name": "ALEX Call Ext / Call Only Ads",
          "is_lead_provider": false,
          "is_public": true
        },
        {
          "id": "58e512e4-3eaa-4200-bde2-b2d50141e452",
          "name": "ALEX Facebook Ads",
          "is_lead_provider": false,
          "is_public": true
        }
      ]
    },
    "detailed_opportunity": {
      "opportunity_id": "c1bec13b-6030-4021-a061-b32e012476ce",
      "trip_info": null,
      "surveys": [],
      "tasks": [],
      "files": [],
      "photos": [],
      "documents": [
        {
          "title": "Invoice",
          "type": 8,
          "isComplete": false
        },
        {
          "title": "Let's Get Moving Contract for Moving Services",
          "type": 5,
          "isComplete": false
        }
      ],
      "payments": [],
      "jobs": [
        {
          "id": "c002b9d3-c833-4533-b8e3-b32e012476d9",
          "job_number": "248238-1",
          "job_date": 20250807,
          "type": 1,
          "confirmed": false,
          "job_addresses": [
            "95 Millrose Place SW, Calgary, Alberta T2Y 2P3, Canada",
            "1812 Palliser Drive SW, Calgary, Alberta T2V 4K9, Canada"
          ],
          "estimated_charges": [
            {
              "name": "Moving Labor",
              "chargeCategory": 1,
              "description": "2h @ $349.00/hr (1 truck, 5 crew)",
              "editableDescription": null,
              "sortOrder": 0,
              "subtotal": 698.0,
              "discountAmount": 0.0,
              "totalCost": 698.0
            },
            {
              "name": "Heavy Item +500lbs (4-5 movers required)",
              "chargeCategory": 4,
              "description": "1 @ $425.00",
              "editableDescription": null,
              "sortOrder": 1,
              "subtotal": 425.0,
              "discountAmount": 0.0,
              "totalCost": 425.0
            }
          ],
          "actual_charges": []
        }
      ]
    }
  }
}